ID,Name,Latitude,Longitude,Phone,Email,Address,Web,Categoria
98118,Commodore Madrid,40.445800000000,-3.685700000000,(+34) 652 62 09 66,reservas@commodoremadrid.com,"de la República Argentina, 5",http://www.esmadrid.com/restaurantes/commodore-madrid,restaurantes
97976,La m&aacute;s croqueta,40.413945900000,-3.707367400000,(+34) 913 640 617,,"de Toledo, 23",http://www.esmadrid.com/restaurantes/croqueta,restaurantes
97794,El Taller,40.419300900000,-3.734736800000,,reservas@eltallerdellago.com,"de María Teresa, 5",http://www.esmadrid.com/restaurantes/taller,restaurantes
97777,Miss Sushi,40.414535400000,-3.700012800000,(+34) 910 100 811  ,santa.ana@misssushi.es,"del Prado, 2",http://www.esmadrid.com/restaurantes/miss-sushi,restaurantes
97502,La Terraza del Santo Domingo,40.420648900000,-3.708539300000,(+34) 91 559 49 31,,"de San Bernardo, 1",http://www.esmadrid.com/restaurantes/terraza-santo-domingo,restaurantes
97389,MO de Movimiento,40.440398100000,-3.694963200000,(+34) 667 97 45 99 |,mo@modemovimiento.com,"de Espronceda, 34",http://www.esmadrid.com/restaurantes/mo-movimiento,restaurantes
97387,Coquetto Bar,40.428249400000,-3.690976700000,(+34) 916 256 292 ,,"de Fortuny, 2",http://www.esmadrid.com/restaurantes/coquetto-bar,restaurantes
97310,Shukran City Ventas,40.430247000000,-3.663876100000,(+34) 633 610 511,,"de Alcalá, 200",http://www.esmadrid.com/restaurantes/shukran-city-ventas,restaurantes
97285,Santa y Pura,40.410225900000,-3.697212000000,(+34) 91 166 78 24,info@santaypura.es,"de  Santa Isabel, 27",http://www.esmadrid.com/restaurantes/santa-pura,restaurantes
97265,Mune Madrid,40.424798200000,-3.697005500000,(+34) 91 395 20 56,hola@munemadrid.com,"de Pelayo, 57",http://www.esmadrid.com/restaurantes/mune-madrid,restaurantes
97183,Le&ntilde;a,40.438859418606,-3.691513538361,(+34) 911 085 566,,"de la Castellana, 57",http://www.esmadrid.com/restaurantes/restaurante-leña,restaurantes
97178,Smoked Room,40.438867700000,-3.691686600000,(+34) 911 086 277,,"de la Castellana, 57",http://www.esmadrid.com/restaurantes/smoked-room,restaurantes
97061,Barbecho ,40.443951200000,-3.700422700000,(+34) 91 598 63 52,info@barbechobar.com,"de Alenza, 12",http://www.esmadrid.com/restaurantes/barbecho,restaurantes
97059,Diurno,40.421252300000,-3.697190700000,(+34) 91 522 00 09,info@diurno.com,"de San Marcos, 37",http://www.esmadrid.com/restaurantes/diurno,restaurantes
96607,Deessa,40.415758764136,-3.692607879639,(+34) 91 701 68 20,,"de la Lealtad, 5",http://www.esmadrid.com/restaurantes/deessa,restaurantes
96580,Villa Verbena,40.419909400000,-3.733878200000,(+34) 91 999 30 14,reservas@villaverbenamadrid.com,"de María Teresa,   3",http://www.esmadrid.com/restaurantes/villa-verbena,restaurantes
96556,Citynizer Plaza,40.411146700000,-3.705983900000,(+34) 915 395 630,info.lavapies@citynizerplaza.com,"de Juanelo,  17",http://www.esmadrid.com/restaurantes/citynizer-plaza,restaurantes
96375,Barracuda MX,40.419026700000,-3.689285300000,(+34) 91 108 89 99,,"de Valenzuela, 7",http://www.esmadrid.com/restaurantes/barracuda-mx,restaurantes
96126,Aloha Pok&eacute;,40.424719900000,-3.702104100000,91 990 14 23,tribunal@alohapoke.es,"Corredera Alta de San Pablo, 5",http://www.esmadrid.com/restaurantes/aloha-poke,restaurantes
95998,Tripea,40.434101200000,-3.708283400000,(+34) 91 828 69 47,,"de Vallehermoso, 36",http://www.esmadrid.com/restaurantes/tripea,restaurantes
95990,Castelados,40.420884500000,-3.679096700000,(+34) 91 051 56 25,,"de Antonio Acuña, 18",http://www.esmadrid.com/restaurantes/castelados,restaurantes
95987,La Maruca,40.427515400000,-3.683618400000,(+34) 917 814 969,,"de Velázquez, 54",http://www.esmadrid.com/restaurantes/maruca,restaurantes
95965,La MaM&aacute; Restaurante,40.444467500000,-3.696696700000,(+34) 91 061 97 64,comoencasa@lamamarestaurante.com,"de María Panes, 6",http://www.esmadrid.com/restaurantes/mama-restaurante,restaurantes
95963,Quinqu&eacute;,40.463505200000,-3.684131400000,(+34) 91 073 28 92,,"de  Apolonio Morales, 3",http://www.esmadrid.com/restaurantes/quinque,restaurantes
95960,Saddle,40.427422380750,-3.691116571426,(+34) 912 16 39 36,reservas@saddle-madrid.com,"Amador de los Ríos,  6",http://www.esmadrid.com/restaurantes/saddle,restaurantes
95774,Bocanegra,40.418269800000,-3.696180400000,(+34) 91 376 60 38,reservas@bocanegramadrid.com,"del Marqués de Casa Riera, 1",http://www.esmadrid.com/restaurantes/bocanegra,restaurantes
95456,Dani Brasserie,40.417282173411,-3.700249493122,(+34) 91 088 33 33,dani.madrid@ fourseasons.com,"de Sevilla,   3",http://www.esmadrid.com/restaurantes/dani-brasserie,restaurantes
95264,Bloom,40.430461000000,-3.712922800000,(+34) 91 108 33 56,bloom@restaurantesalvadorbachiller.es,"de Alberto Aguilera, 54",http://www.esmadrid.com/restaurantes/bloom,restaurantes
95070,La Venencia,40.415835700000,-3.699563300000,(+34) 91 429 73 13,,"de Echegaray, 7",http://www.esmadrid.com/restaurantes/venencia,restaurantes
95052,Gran V&iacute;a 55,40.421550000000,-3.708628600000,(+34) 91 330 87 05,,"Gran Vía , 55",http://www.esmadrid.com/restaurantes/gran-55,restaurantes
94984,Bodega de La Ardosa,40.423755700000,-3.701810100000,(+34) 91 521 49 79 ,,"de Colón, 13",http://www.esmadrid.com/restaurantes/bodega-ardosa,restaurantes
94983,Casa Julio,40.424329700000,-3.703752500000,(+34) 91 522 72 74,,"de la Madera, 37",http://www.esmadrid.com/restaurantes/casa-julio,restaurantes
94980,Casa Camacho,40.425654800000,-3.703820600000,(+34) 915 31 35 98,,"de San Andrés, 4",http://www.esmadrid.com/restaurantes/casa-camacho,restaurantes
94979,Bodegas Ricla,40.414290400000,-3.708149900000,(+34) 91 365 20 69,,"de Cuchilleros, 6",http://www.esmadrid.com/restaurantes/bodegas-ricla,restaurantes
94978,Bar Santurce,40.409680000000,-3.707770000000,(+34) 646 23 83 03,,"del General Vara del Rey, 14",http://www.esmadrid.com/restaurantes/bar-santurce,restaurantes
94977,Bar Santos,40.416517200000,-3.711180200000,(+34) 915 411 646,,"de Santiago, 2",http://www.esmadrid.com/restaurantes/bar-santos,restaurantes
94800,El Sainete,40.437198400000,-3.699074900000,+34 914 45 63 62,reservas@elsainete.com,"de Ponzano, 6",http://www.esmadrid.com/restaurantes/sainete,restaurantes
94769,Tablafina,40.409794200000,-3.692809000000,(+34) 91 600 81 46,,"del Prado, 48",http://www.esmadrid.com/restaurantes/tablafina,restaurantes
94768,Patio de Leones,40.420827300000,-3.688811000000,(+34) 651 55 50 00,info@patiodeleones.es,"de Serrano, 1",http://www.esmadrid.com/restaurantes/patio-leones,restaurantes
94764,Pr&iacute;stino,40.432623900000,-3.692915500000,(+34) 91 737 36 40,info@pristinorestaurante.com,"de Eduardo Dato, 8",http://www.esmadrid.com/restaurantes/pristino,restaurantes
94763,Neotaberna Santerra,40.442096100000,-3.698933000000,(+34) 91 907 04 15,reservas.neotaberna@santerra.es,"de Ponzano, 62",http://www.esmadrid.com/restaurantes/neotaberna-santerra,restaurantes
94762,Estimar,40.416126700000,-3.695954900000,(+34) 91 429 20 52,reservas@restaurantestimar.com,"del Marqués de Cubas, 18",http://www.esmadrid.com/restaurantes/estimar,restaurantes
94752,Ovillo,40.447440100000,-3.670379300000,(+34) 91 737 33 90,,"Pantoja, 8",http://www.esmadrid.com/restaurantes/ovillo,restaurantes
94651,Restaurante  La Tajada,40.455924800000,-3.680666400000,(+ 34) 912 322 204, reservas@dsncaja.com,"Ramón de Santillán, 15 ",http://www.esmadrid.com/restaurantes/restaurante-tajada,restaurantes
94462,Restaurante Ponzano,40.437508200000,-3.699177300000,+34 914 48 68 80,,"Ponzano, 12",http://www.esmadrid.com/restaurantes/restaurante-ponzano,restaurantes
94280,Berlanga,40.417692000000,-3.678346400000,(+34) 91 391 68 86,restaurante@restauranteberlanga.com,"de Menéndez Pelayo, 41",http://www.esmadrid.com/restaurantes/berlanga,restaurantes
94273,Hermanos Vinagre,40.418877800000,-3.676394000000,(+34) 91 539 11 69,info@hermanosvinagre.com,"de Narváez, 58",http://www.esmadrid.com/restaurantes/hermanos-vinagre,restaurantes
94067,V&aacute;lgame Dios,40.422111520382,-3.696561455727,(+34) 91 701 03 41,,"de Augusto Figueroa, 43",http://www.esmadrid.com/restaurantes/valgame-dios,restaurantes
94040,Maddock ,40.434890770456,-3.694347292185,(+34) 91 029 07 37,info@maddockmadrid.com,"del General Martínez Campos, 26",http://www.esmadrid.com/restaurantes/maddock,restaurantes
93477,Yugo the Bunker,40.410602700000,-3.694579500000,(+34) 91 444 90 34,reservas@yugothebunker.com,"de San Blas, 4",http://www.esmadrid.com/restaurantes/yugo-bunker,restaurantes
93475,Gofio by Cicero Canary,40.413889500000,-3.698282200000,(+34) 91 599 44 04,,"de Lope de Vega, 9",http://www.esmadrid.com/restaurantes/gofio-cicero-canary,restaurantes
93472,99 KŌ Sushi Bar,40.429573200000,-3.688154400000,(+34) 91 431 38 78,reservas@99kosushibar.com,"Marqués de Villamagna, 1",http://www.esmadrid.com/restaurantes/99-ko-sushi-bar,restaurantes
92908,Restaurante Casa Pepe 1899,40.405417000000,-3.701753100000,(+34) 91 527 27 47,,"de Valencia, 16",http://www.esmadrid.com/restaurantes/restaurante-casa-pepe-1899,restaurantes
92868,Landareak,40.427740700000,-3.704009600000,(+34) 910 64 74 69,landareak@landareak.es,"de Ruiz, 5",http://www.esmadrid.com/restaurantes/landareak,restaurantes
92866,La Huerta de Almer&iacute;a,40.412457400000,-3.696631200000,(+34) 91 279 92 54,lahuertadealmeria@hotmail.com,"de Moratín, 25",http://www.esmadrid.com/restaurantes/huerta-almeria,restaurantes
92856,B13,40.421946123534,-3.703519105911,,b13bar@gmail.com,"de la Ballesta, 13",http://www.esmadrid.com/restaurantes/b13,restaurantes
92855,Chilling Cafe,40.422052100000,-3.706212000000,(+34) 691 53 59 46,chillingcafemad@gmail.com,"de la Estrella, 5",http://www.esmadrid.com/restaurantes/chilling-cafe,restaurantes
92847,Hakuna Matata Veggie,40.430918000000,-3.710304700000,(+34) 618 35 55 22,hakunamatataveggie@gmail.com,"de Galileo, 12",http://www.esmadrid.com/restaurantes/hakuna-matata-veggie,restaurantes
92842,Cookaluzka,40.408306900000,-3.669086300000,(+34) 91 042 27 09,cookaluzka@gmail.com,"de Lira, 8",http://www.esmadrid.com/restaurantes/cookaluzka,restaurantes
92814,La t&iacute;a Carlota,40.407482000000,-3.699804800000,(+34) 91 210 82 73,info@latiacarlotagastrobar.com,"de la Sombrerería, 6",http://www.esmadrid.com/restaurantes/tia-carlota,restaurantes
92813,Bunny's Deli,40.424001200000,-3.697231800000,(+34) 648 732 783,info@bunnysdeli.com,"San Gregorio, 17",http://www.esmadrid.com/restaurantes/bunnys-deli,restaurantes
92793,Vega,40.422335111770,-3.706147670746,(+34) 91 070 49 69,hola@govega.es,"de la Luna, 9",http://www.esmadrid.com/restaurantes/vega,restaurantes
92786,Distrito Vegano,40.407084400000,-3.699709200000,(+34) 911 10 13 53,info@distritovegano.com,"del Doctor Fourquet, 32",http://www.esmadrid.com/restaurantes/distrito-vegano,restaurantes
92012,Run Run Run,40.441114600000,-3.695289600000,(+34) 91 166 90 94,runrunrun@grupolamusa.com,"de José Zorrilla, 1",http://www.esmadrid.com/restaurantes/run-run-run,restaurantes
91904,Occhiali,40.448504461760,-3.669063448906,(+34) 910 415 634,info@occhialirestaurante.com,"Sánchez Pacheco, 84",http://www.esmadrid.com/restaurantes/occhiali,restaurantes
91767,Col&oacute;simo,40.429974600000,-3.673941900000,(+34) 91 453 14 25,,"de José Ortega y Gasset, 67",http://www.esmadrid.com/restaurantes/colosimo,restaurantes
91766,Aitatxu,40.436731300000,-3.685045000000,(+34) 91 051 54 34,info@aitatxu.com,"de Claudio Coello, 122",http://www.esmadrid.com/restaurantes/aitatxu,restaurantes
91656,Hong Kong 70,40.409621700000,-3.709897300000,(+34) 910 59 83 78,info@hongkong70.com,"de Toledo, 70",http://www.esmadrid.com/restaurantes/hong-kong-70,restaurantes
91635,Zest,40.421877718546,-3.690224736929,(+34) 91 431 83 67,info@zestmadrid.com,"de Recoletos, 10",http://www.esmadrid.com/restaurantes/zest,restaurantes
91615,Salutteria,40.421924100000,-3.684588100000,(+34) 91 081 25 22,hello@salutteria.es,"de Velázquez, 9",http://www.esmadrid.com/restaurantes/salutteria,restaurantes
91609,Indalo Tapas,40.422436187086,-3.700091242790,(+34) 91 532 24 52,indalotapasmadrid@gmail.com,"Pérez Galdós, 7",http://www.esmadrid.com/restaurantes/indalo-tapas,restaurantes
91603,Casa Lolea,40.421901700000,-3.697282200000,(+34) 915 218 223 ,holamadrid@casalolea.com,"Libertad, 26",http://www.esmadrid.com/restaurantes/casa-lolea,restaurantes
91484,Kippu,40.430450700000,-3.678101700000,(+34) 91 066 70 44,,"del General Pardiñas, 70",http://www.esmadrid.com/restaurantes/kippu,restaurantes
91437,El Cl&aacute;sico,40.415675100000,-3.705099100000,(+34) 91 515 70 38,info@elclasicomadrid.com,"del Marqués Viudo de Pontejos, 9",http://www.esmadrid.com/restaurantes/clasico,restaurantes
91414,Xantar Astur,40.402396600000,-3.681040300000,(+34) 91 649 23 47,info@xantarastur.es,"de Téllez, 6",http://www.esmadrid.com/restaurantes/xantar-astur,restaurantes
91315,Alma Cocktails &amp; Tapas,40.424731500000,-3.671546600000,(+34) 91 401 61 27,,"de Goya, 119",http://www.esmadrid.com/restaurantes/alma-cocktails-tapas,restaurantes
91305,P&oacute;lvora,40.432841027106,-3.680680096149,(+34) 91 051 84 50,hola@restaurantepolvora.com,"de Juan Bravo, 23",http://www.esmadrid.com/restaurantes/polvora,restaurantes
91284,La Ventana de Flavia,40.427489900000,-3.685032100000,(+34) 91 529 63 37,reservas@ristoranteflavia.com,"de Lagasca, 64",http://www.esmadrid.com/restaurantes/ventana-flavia,restaurantes
91279,La Casita de Sabino,40.458135100000,-3.687569100000,(+34) 918 785 177,reservas@lacasitadesabinomadrid.com,"del Doctor Fleming, 32",http://www.esmadrid.com/restaurantes/casita-sabino,restaurantes
91278,Flora Fina,40.426934500000,-3.687334600000,(+34) 914 31 30 60, florafina@iconhotels.com,"Serrano, 46",http://www.esmadrid.com/restaurantes/flora-fina,restaurantes
91272,Da Luca Trattoria - Pizzeria,40.421970900000,-3.694074000000,(+34) 91 454 16 60,info@dalucamadrid.es,"de Prim, 7",http://www.esmadrid.com/restaurantes/da-luca-trattoria-pizzeria,restaurantes
91245,Caraba,40.439904600000,-3.697537800000,(+34) 91 154 71 31,reservas@carabamadrid.com,"de Alonso Cano, 28",http://www.esmadrid.com/restaurantes/caraba,restaurantes
91244,Avocado Love,40.425267255173,-3.703635782003,(+34) 915 320 927,hola@avocadolove.es,"del Espíritu Santo, 15",http://www.esmadrid.com/restaurantes/avocado-love,restaurantes
91191,El Mirador del Olivar,40.467698571372,-3.609609603882,(+34) 91 721 02 69,elmiradordelolivar@saboresmasquegolf.com,"de Dublín, s/n",http://www.esmadrid.com/restaurantes/mirador-olivar,restaurantes
91190,Azotea Forus Barcel&oacute;,40.426771700000,-3.698856900000,(+34) 91 530 17 61,info@azoteaforus.com,"Barcelo, 6",http://www.esmadrid.com/restaurantes/azotea-forus-barcelo,restaurantes
91144,Chigre,40.428946800000,-3.687535400000,(+34) 91 088 88 70,,"Serrano, 45",http://www.esmadrid.com/restaurantes/chigre,restaurantes
91142,Hermanas Arce,40.422984000000,-3.693623300000,(+34) 918 70 85 93,hermanasarce@gmail.com,"Marqués de Monasterio, 6",http://www.esmadrid.com/restaurantes/hermanas-arce,restaurantes
91106,Las Carboneras de Lu,40.421204895628,-3.689898848534,(+34) 91 057 70 03,,"Villalar, 7",http://www.esmadrid.com/restaurantes/carboneras-lu,restaurantes
91091,Chido Castizo &amp; Ching&oacute;n,40.454183400000,-3.693108900000,(+34) 910 580 847,contacto@carvigon.com,"de Brasil, 6",http://www.esmadrid.com/restaurantes/chido-castizo-chingon,restaurantes
91074,La Elegida,40.431791632324,-3.700810074806,(+34) 91 942 44 25,reservas@laelegida.es,"de Trafalgar, 15",http://www.esmadrid.com/restaurantes/elegida,restaurantes
91059,La Tasca del Retiro,40.420874600000,-3.679490800000,(+34) 91 200 24 58,,"de Menéndez Pelayo, 11",http://www.esmadrid.com/restaurantes/tasca-retiro,restaurantes
91058,Barra y Mantel,40.423509000000,-3.680844700000,(+34) 91 064 45 98,,"de Jorge Juan, 50",http://www.esmadrid.com/restaurantes/barra-mantel,restaurantes
91037,Marab&uacute;,40.439911300000,-3.699372200000,(+34) 91 831 77 73,info@marabulamaquina.es,"de Ponzano, 37",http://www.esmadrid.com/restaurantes/marabu,restaurantes
91006,La Cocina de Frente,40.417887400000,-3.673831700000,(+34) 91 060 72 20 ,,"de Ibiza, 40",http://www.esmadrid.com/restaurantes/cocina-frente,restaurantes
90997,A&uuml;akt,40.424328600000,-3.695378800000,(+34) 91 056 87 04,hola@auakt.com,"del Barquillo, 44",http://www.esmadrid.com/restaurantes/auakt,restaurantes
90939,El 5 de Tirso,40.412253183302,-3.704242832110,(+34) 91 088 85 02,el5@grupolafabrica.es,"de Tirso de Molina, 5",http://www.esmadrid.com/restaurantes/5-tirso,restaurantes
90887,Etxeko,40.428114200000,-3.683539200000,(+34) 91 086 13 78,etxeko.madrid@blesscollectionhotels.com,"de Velázquez, 62",http://www.esmadrid.com/restaurantes/etxeko,restaurantes
90863,Casa Juli&aacute;n de Tolosa Ibiza,40.418372800000,-3.675017300000,(+34) 91 060 72 10,contacto@juliandetolosa.com,"de Ibiza, 29",http://www.esmadrid.com/restaurantes/casa-julian-tolosa-ibiza,restaurantes
90843,El Jefe Traveling Food,40.445857571040,-3.697264865041,(+34) 660 92 07 42,contacto@eljefe.restaurant,"de Alonso Cano, 103",http://www.esmadrid.com/restaurantes/jefe-traveling-food,restaurantes
90816,La Carlota	,40.422643500000,-3.694356700000,(+34) 91 046 62 83,reservas@lacarlotarest.es,"del Almirante, 11",http://www.esmadrid.com/restaurantes/carlota,restaurantes
90794,Bule Bule ,40.419631600000,-3.697058200000,(+34) 91 438 05 53,,"Marqués de Valdeiglesias, 6",http://www.esmadrid.com/restaurantes/bule-bule,restaurantes
90467,La Verit&aacute;,40.391155600000,-3.692563000000,(+34) 910 592 737,hola@laveritamadrid.com,"de Embajadores, 181 B",http://www.esmadrid.com/restaurantes/verita,restaurantes
90459,Pieology,40.462945100000,-3.637029800000,(+34) 91 493 92 54,info@comessgroup.com,"de Silvano, 77",http://www.esmadrid.com/restaurantes/pieology,restaurantes
90167,Meste&ntilde;o Bar,40.420614300000,-3.686867900000,(+34) 679 44 35 41,reservas@mestenobar.es,"de Alcalá, 77",http://www.esmadrid.com/restaurantes/mesteno-bar,restaurantes
90162,Guillermina,40.427036900000,-3.691435600000,(+34) 91 310 75 00,info@guillerminamadrid.com,"Amador de los Ríos, 3",http://www.esmadrid.com/restaurantes/guillermina,restaurantes
90110,Casa Ciriaco,40.415286500000,-3.712315800000,(+34) 915 48 06 20,info@casaciriaco.es,"Mayor, 84",http://www.esmadrid.com/restaurantes/casa-ciriaco,restaurantes
90091,El Amor Hermoso Bar,40.426840300000,-3.708072300000,(+34) 606 21 64 82,,"de la Palma, 62",http://www.esmadrid.com/restaurantes/amor-hermoso-bar,restaurantes
90073,Casa Candi,40.425839500000,-3.708747600000,(+34) 91 531 89 61,,"del Noviciado, 16",http://www.esmadrid.com/restaurantes/casa-candi,restaurantes
90072,Raimunda,40.419935100000,-3.692259800000,(+34) 91 088 72 47,raimunda@grupolafabrica.es,"de Recoletos, 2",http://www.esmadrid.com/restaurantes/raimunda,restaurantes
90056,Monsieur Sushita,40.428617700000,-3.683650100000,(+34) 918 31 80 81,,"de Velázquez, 68",http://www.esmadrid.com/restaurantes/monsieur-sushita,restaurantes
90010,Sottosopra,40.423349600000,-3.686316300000,(+34) 91 748 61 97,ciao@sottosopra.es,"Puigcerdá, 8",http://www.esmadrid.com/restaurantes/sottosopra,restaurantes
89974,Pez Fuego,40.461786839407,-3.693745136261,(+34) 91 571 82 65,,"de Orense, 68",http://www.esmadrid.com/restaurantes/pez-fuego,restaurantes
89899,Ferreter&iacute;a by EGO,40.412815500000,-3.699726000000,(+34) 91 429 71 01,reservas@ferreteriabyego.com,"de Atocha, 57",http://www.esmadrid.com/restaurantes/ferreteria-ego,restaurantes
89837,Do&ntilde;a Truhana,40.411592696692,-3.711584508419,(+34) 680 79 98 40,reservas@donatruhana.com,"de los Carros, 3",http://www.esmadrid.com/restaurantes/dona-truhana,restaurantes
89836,Noname Bar,40.423650600000,-3.686913400000,(+34) 670 088 427,reservas@nonamebar.es,"de Claudio Coello, 27",http://www.esmadrid.com/restaurantes/noname-bar,restaurantes
89812,Taberna Bandido,40.421950500000,-3.690109000000,,,"de Recoletos, 11",http://www.esmadrid.com/restaurantes/taberna-bandido,restaurantes
89717,Do&ntilde;a Luz,40.417564300000,-3.702557900000,(+34) 917 316 757,entretejados@donaluzmadrid.com,"de la Montera, 10 - 12",http://www.esmadrid.com/restaurantes/dona-luz,restaurantes
89514,Sinsombrero,40.426824800000,-3.689457900000,(+34) 915 77 52 39 ,reservas@sinsombrero.es,"de la Castellana, 4",http://www.esmadrid.com/restaurantes/sinsombrero,restaurantes
89477,Pic&amp;Nic ,40.445937400000,-3.667926900000,(+34) 91 027 99 82,,"Clara del Rey, 52",http://www.esmadrid.com/restaurantes/picnic,restaurantes
89472,Hake Mate,40.436458800000,-3.686114900000,(+34) 910 58 34 69,info@hakemate.es,"de Serrano, 120",http://www.esmadrid.com/restaurantes/hake-mate,restaurantes
89470,Giulietta,40.459920700000,-3.632724600000,(+34) 91 759 48 91 ,info@giuliettamadrid.com,"Manuel Rodrigo, 7",http://www.esmadrid.com/restaurantes/giulietta,restaurantes
89408,Sukaldean Bai Bokado,40.419798500000,-3.691733800000,(+34) 91 137 59 52 ,sukaldean@bokadogrupo.com,"de Alcalá, 55",http://www.esmadrid.com/restaurantes/sukaldean-bai-bokado,restaurantes
89393,Lamucca (Plaza del Carmen),40.419015877391,-3.702998757362,(+34) 915 219 566,lamuccadelcarmen@gmail.com,"del Carmen, 5",http://www.esmadrid.com/restaurantes/lamucca-plaza-carmen,restaurantes
89316,La Bientirada,40.434018500000,-3.704684100000,(+34) 91 088 70 45,info@grupolalala.com,"de Quevedo, 6",http://www.esmadrid.com/restaurantes/bientirada,restaurantes
89314,Iztac,40.455121900000,-3.678059100000,(+34) 910 090 235 ,,"de la República de Ecuador, 4",http://www.esmadrid.com/restaurantes/iztac,restaurantes
89244,Taberna El Gallocanta,40.413456226880,-3.695683702827,(+34) 91 429 27 62,info@elgallocanta.es,"de Jesús, 2",http://www.esmadrid.com/restaurantes/taberna-gallocanta,restaurantes
88640,Green Tea Food &amp; Drinks,40.439071726515,-3.693004846573,(+34)  91 441 45 00,reservas@greenteazurbano.es,"de Zurbano, 79",http://www.esmadrid.com/restaurantes/green-tea-food-drinks,restaurantes
88523,Ikigai,40.422197281550,-3.709798157215,(+34) 916 22 63 74,info@restauranteikigai.com,"Flor Baja, 5",http://www.esmadrid.com/restaurantes/ikigai,restaurantes
88521,Enigmatium Room,40.413311000000,-3.697011000000,(+34) 91 564 12 31,madrid@enigmatiumroom.com,Primer enigma a resolver,http://www.esmadrid.com/restaurantes/enigmatium-room,restaurantes
88510,La Madre&ntilde;a (Paseo de la Castellana),40.439108472047,-3.690561354160,(+34) 914 268 850,,"de la Castellana, 78",http://www.esmadrid.com/restaurantes/madrena-paseo-castellana,restaurantes
88503,Picalagartos Sky - Bar,40.419813100000,-3.701277700000,(+34) 91 530 17 61, info@picalagartos.com,"Gran Vía, 21",http://www.esmadrid.com/restaurantes/picalagartos-sky-bar,restaurantes
88474,Teje Maneje,40.437771330051,-3.699214160442,(+34) 91 088 50 40,info@grupolalala.com,"de Ponzano, 16",http://www.esmadrid.com/restaurantes/teje-maneje,restaurantes
88469,Lambuzo (Retiro),40.415846575527,-3.677667975426,(+34) 911 99 84 88,info@barlambuzo.com,"de Menéndez Pelayo, 59",http://www.esmadrid.com/restaurantes/lambuzo-retiro,restaurantes
88392,Yakiniku Rikyu,40.428109900000,-3.690170000000,(+34) 91 000 77 67,info@yakinikurikyu.es,"de la Castellana, 15",http://www.esmadrid.com/restaurantes/yakiniku-rikyu,restaurantes
88361,Yan Ken Pon,40.411010000000,-3.706950000000,(+34) 91 057 34 65,info@yankenpon.com,"de Cascorro, 3",http://www.esmadrid.com/restaurantes/yan-ken-pon,restaurantes
88358,Shanghai mama (Cuzco),40.460297090666,-3.696312010288,(+34) 91 041 87 28 ,cuzco@shanghaimama.es,"de la Infanta Mercedes, 62",http://www.esmadrid.com/restaurantes/shanghai-mama-cuzco,restaurantes
88352,Quispe,40.426990900000,-3.695725600000,(+34) 91 137 57 85,info@quispe.es,"Orellana, 1",http://www.esmadrid.com/restaurantes/quispe,restaurantes
88351,Les Mauvais Gar&ccedil;ons,40.424361700000,-3.703483700000,(+34) 640 61 27 07,contact@lesmauvaisgarcons.es,"de la Madera, 36",http://www.esmadrid.com/restaurantes/mauvais-garcons,restaurantes
88346,Hot Now,40.421373900000,-3.697965100000,(+34) 91 069 74 42,hola@hotnow.es,"de Barbieri, 14",http://www.esmadrid.com/restaurantes/hot-now,restaurantes
88319,Dogma,40.458880000000,-3.680190900000,(+34) 91 069 72 52,reservation@dogmarestaurante.com,"de Alberto Alcocer, 43",http://www.esmadrid.com/restaurantes/dogma,restaurantes
88289,Charr&uacute;a,40.422399432443,-3.694099187851,(+34) 91 279 1601,info@charruamadrid.com,"Conde de Xiquena, 4",http://www.esmadrid.com/restaurantes/charrua,restaurantes
88280,Soma by Luke,40.423624300000,-3.693851600000,(+34) 662 675 576,,"Bárbara de Braganza, 2",http://www.esmadrid.com/restaurantes/soma-luke,restaurantes
88228,Tasty Poke Bar,40.432933800000,-3.704827600000,(+34) 91 163 37 95,info@tastypokebar.com,"de San Bernardo, 119",http://www.esmadrid.com/restaurantes/tasty-poke-bar,restaurantes
88218,Como en Chile,40.434126700000,-3.713723400000, (+34) 910 64 51 43,comoenchilerestaurant@gmail.com,"de Fernando el Católico, 53",http://www.esmadrid.com/restaurantes/chile,restaurantes
88211,San Wich (Esp&iacute;ritu Santo),40.424977313540,-3.702187389135,(+34) 91 531 45 14,purosandwich.mad@gmail.com,"del Espíritu Santo, 3",http://www.esmadrid.com/restaurantes/san-wich-espiritu-santo,restaurantes
88180,Restaurante Masterchef,40.443151100000,-3.682305500000,(+34) 91 086 47 92,reservas@restaurantemasterchef.com,"de Velázquez, 150",http://www.esmadrid.com/restaurantes/restaurante-masterchef,restaurantes
88170,Nudista,40.431509500000,-3.699213400000,(+34) 913 776 424,,"de Luchana, 27",http://www.esmadrid.com/restaurantes/nudista,restaurantes
88062,Arado. Grocery &amp; Restaurant,40.435254300000,-3.685471900000,(+34)91 562 20 40,arado@melia.com,"de Claudio Coello, 139",http://www.esmadrid.com/restaurantes/arado-grocery-restaurant,restaurantes
87967,Tres por Cuatro,40.425849900000,-3.676740000000,(+34) 687 268 432,reservas@tresporcuatromadrid.com,"de Hermosilla, 82",http://www.esmadrid.com/restaurantes/tres-cuatro,restaurantes
87953,Propaganda 12,40.420939440122,-3.697379529476,(+34) 910 567 003,info@propaganda12.com,"Libertad, 12",http://www.esmadrid.com/restaurantes/propaganda-12,restaurantes
87946,Pomerania,40.437624300000,-3.688829500000,(+ 34) 910 884 550,eventos@gruporantanplan.com,"de María de Molina, 4",http://www.esmadrid.com/restaurantes/pomerania,restaurantes
87921,Misska,40.433926500000,-3.701968600000,(+34) 914 26 85 18,comunicacion@misska.es,"Eloy Gonzalo, 20",http://www.esmadrid.com/restaurantes/misska,restaurantes
87920,Mawey Taco Bar,40.431691591888,-3.702400624752,(+34) 91 011 71 03,reservas@restaurantemawey.es,"de Olid, 6",http://www.esmadrid.com/restaurantes/mawey-taco-bar,restaurantes
87907,Lobo 8,40.415798585595,-3.699650019407,(+34) 91 360 00 02,info@lobo8.com,"Echegaray, 8",http://www.esmadrid.com/restaurantes/lobo-8,restaurantes
87898,La Cebicher&iacute;a de Trafalgar,40.431536426837,-3.700260892510,(+34) 919 191 749,lacebicheriadetrafalgar@gmail.com,"de Trafalgar, 8",http://www.esmadrid.com/restaurantes/cebicheria-trafalgar,restaurantes
87877,Falafeleria,40.424354200000,-3.701116400000,(+34) 91 172 76 10,,"Santa Bárbara ,4",http://www.esmadrid.com/restaurantes/falafeleria,restaurantes
87875,Cilindro,40.428775600000,-3.674782500000,(+34) 910 66 33 56,,"Don Ramón de la Cruz, 83",http://www.esmadrid.com/restaurantes/cilindro,restaurantes
87866,Cap&oacute;n,40.404427580706,-3.711922466755,(+34) 910 59 20 38,marketing@grupojhosefarias.com,"de San Isidoro de Sevilla, 4",http://www.esmadrid.com/restaurantes/capon,restaurantes
87862,Botania ,40.422864700000,-3.711467400000,(+34) 91 575 75 53,reservas@botania.com,"de España, 5",http://www.esmadrid.com/restaurantes/botania,restaurantes
87861,Alameda ,40.423805283214,-3.686521947384,(+34) 912 657 724,restaurantejj10@alameda.com.es,"de Jorge Juan, 10",http://www.esmadrid.com/restaurantes/alameda,restaurantes
87804,De la Riva,40.455799073474,-3.680779337883,(+34) 91 458 89 54,pepe@restaurantedelariva.com,"de Cochabamba, 13",http://www.esmadrid.com/restaurantes/riva,restaurantes
87752,Donzoko,40.416187609377,-3.699570894241,(+34) 91 429 57 20,donzoko28014@yahoo.co.jp,"Echegaray, 3",http://www.esmadrid.com/restaurantes/donzoko,restaurantes
87746,Callao24,40.450243600000,-3.654744400000,(+34) 910 85 22 10,callao24@grupojhosefarias.com,"de Agastia, 76",http://www.esmadrid.com/restaurantes/callao24,restaurantes
87741,Astrolabius,40.436078939686,-3.686200082302,(+34) 91 562 06 11,info@astrolabiusmadrid.com,"de Serrano, 118",http://www.esmadrid.com/restaurantes/astrolabius,restaurantes
87700,El Buda Feliz 1974,40.421211021512,-3.705544173718,(+34) 915 319 524,info@elbudafeliz1974.es,"Tudescos, 5",http://www.esmadrid.com/restaurantes/buda-feliz-1974,restaurantes
87592,Shinatora Ya,40.425790984604,-3.686656057835,(+34) 911 374 504,shinatoraya@gmail.com,"de Claudio Coello, 41",http://www.esmadrid.com/restaurantes/shinatora-ya,restaurantes
87528,La Sal del Mentidero,40.517126962229,-3.667065203190,(+34) 91 864 48 88,lasal@mentiderodelavilla.es,"de la Comunicación, 3",http://www.esmadrid.com/restaurantes/sal-mentidero,restaurantes
87512,Cascorro Bistrot,40.411127061365,-3.707408308983,(+34) 910 39 09 52,bistrot.cascorro@yahoo.com,"de Cascorro, 21",http://www.esmadrid.com/restaurantes/cascorro-bistrot,restaurantes
87504,Grosso Napoletano (Santa Engracia),40.433881218417,-3.698118478060,(+34) 911 704 653,info@grossonapoletano.com,"de Santa Engracia, 48",http://www.esmadrid.com/restaurantes/grosso-napoletano-santa-engracia,restaurantes
87472,Vagalume,40.439202377203,-3.699420690537,(+34) 914 428 707,,"de Ponzano, 27",http://www.esmadrid.com/restaurantes/vagalume,restaurantes
87467,Cortezo Yatai Market,40.413030900000,-3.703946300000,(+34) 91 138 41 13,info@yataimarkets.com,"del Doctor Cortezo, 10",http://www.esmadrid.com/restaurantes/cortezo-yatai-market,restaurantes
87462,El Greco,40.431695675174,-3.711659610272,(+34) 647 80 45 89,,"de Blasco de Garay, 20",http://www.esmadrid.com/restaurantes/greco,restaurantes
87460,El Oso,40.506049944370,-3.657277822495,(+34) 91 766 60 60,web@restauranteeloso.com,"de Burgos, 214",http://www.esmadrid.com/restaurantes/oso,restaurantes
87427,La Catapa,40.419409987611,-3.677362203598,(+34) 91 574 26 15,,"Menorca, 14",http://www.esmadrid.com/restaurantes/catapa,restaurantes
87425,La Bien Aparecida,40.423850204613,-3.687086552382,(+34) 911 593 939,,"de Jorge Juan, 8",http://www.esmadrid.com/restaurantes/bien-aparecida,restaurantes
87409,99 Sushi Bar (Padre Dami&aacute;n),40.458548124301,-3.685800433159,(+34) 913 593 801,,"Padre Damián, 23",http://www.esmadrid.com/restaurantes/99-sushi-bar-padre-damian,restaurantes
87407,Ruta 77 Palacio de Hielo,40.462924536230,-3.635872453451,(+34) 91 716 04 00,ruta77madrid@gmail.com,"Silvano, 77",http://www.esmadrid.com/restaurantes/ruta-77-palacio-hielo,restaurantes
87395,Volvoreta,40.476741677704,-3.687930107117,(+34) 91 334 27 55,restaurante@eurostarsmadridtower.com,"de la Castellana, 259 - B ",http://www.esmadrid.com/restaurantes/volvoreta,restaurantes
87387,Bump Green,40.422156300000,-3.684549700000,(+34) 91 008 87 24, hello@bumpgreen.com,"de Velázquez, 11",http://www.esmadrid.com/restaurantes/bump-green,restaurantes
87384,&Eacute;timo,40.427881400000,-3.684609100000,(+34) 913 759 883,,"de Ayala, 27",http://www.esmadrid.com/restaurantes/etimo,restaurantes
87380,Ninja Ramen,40.426463600000,-3.701088100000,(+34) 914 939 993 ,contacto@ninjaramen.es ,"Barceló, 1",http://www.esmadrid.com/restaurantes/ninja-ramen,restaurantes
87337,La Casta&ntilde;al,40.459953219311,-3.705175369978,(+34) 91 311 52 02,,"Berruguete, 78",http://www.esmadrid.com/restaurantes/castanal,restaurantes
87312,La Boiga Taberna,40.430454344814,-3.675063550472,(+34) 914 011 309,info@laboiga.com,"de Conde de Peñalver, 52",http://www.esmadrid.com/restaurantes/boiga-taberna,restaurantes
87308,Taberna Aver&iacute;as,40.437870300000,-3.699193900000,(+34) 91 603 34 50  , averias@grupotaberias.com,"de Ponzano, 16",http://www.esmadrid.com/restaurantes/taberna-averias,restaurantes
87305,Casa Baranda,40.423778200000,-3.701663800000,(+34) 915 21 49 79,,"de Colón, 11",http://www.esmadrid.com/restaurantes/casa-baranda,restaurantes
87260,Hortensio,40.430705471062,-3.691604733467,(+34) 910 023 554,info@hortensio.es,Hermosilla 2 - Gran Meliá Hotel,http://www.esmadrid.com/restaurantes/hortensio,restaurantes
87201,Kanbun Taberna Oriental,40.463547965509,-3.657779395580,(+34) 91 388 61 66,info@kanbun.es,"de López de Hoyos, 327",http://www.esmadrid.com/restaurantes/kanbun-taberna-oriental,restaurantes
87164,Carl&rsquo;s JR.,40.420948400000,-3.707380300000,(+34) 91 896 63 78,,"Gran Vía, 45",http://www.esmadrid.com/restaurantes/carls-jr,restaurantes
87148,Alzahra,40.438610364244,-3.657664060593,(+34) 91404 31 50 ,reservas@restaurantealzahra.es ,"Salvador de Madariaga, 7",http://www.esmadrid.com/restaurantes/alzahra,restaurantes
87119,Pizzi &amp; Dixie,40.425835900000,-3.702809300000,(+34) 912 659 887,contacto@pizzidixie.com,"de San Vicente Ferrer, 16",http://www.esmadrid.com/restaurantes/pizzi-dixie,restaurantes
87110,Montmartre 1889,40.419685659190,-3.709653317928,(+34) 91 541 67 00,gmpalacio@melia.com,"de Santo Domingo, 5",http://www.esmadrid.com/restaurantes/montmartre-1889,restaurantes
87103,Mandioca,40.431880700000,-3.704730800000,(+34) 911 278 654,mandioca@mandioca.es,"de San Bernardo, 120",http://www.esmadrid.com/restaurantes/mandioca,restaurantes
87102,Kuoco 360&ordm; food,40.421954400000,-3.698388600000,(+34) 911 99 53 77,hola@kuoco.es,"de  San Bartolomé, 14",http://www.esmadrid.com/restaurantes/kuoco-360o-food,restaurantes
87061,Restaulandia,40.488139724699,-3.688715994358,(+34) 606 34 18 02,reservas@restaulandia.com,"de Manuel Tovar, 25",http://www.esmadrid.com/restaurantes/restaulandia,restaurantes
86979,Corral de la Morer&iacute;a Restaurante Gastron&oacute;mico,40.412687335473,-3.714172840118,(+34) 91 365 84 46 ,info@corraldelamoreria.com,"de la Morería, 17",http://www.esmadrid.com/restaurantes/corral-moreria-restaurante-gastronomico,restaurantes
86922,Candeli,40.440604814686,-3.699431419373,(+34) 91 737 70 86,info@restaurantecandeli.com,"de Ponzano, 47",http://www.esmadrid.com/restaurantes/candeli,restaurantes
86920,El cielo de Urrechu,40.441419317348,-3.784189224243,(+34) 917 093 285,reservas@cielodeurrechu.com,"de Europa, 26, Local  217",http://www.esmadrid.com/restaurantes/cielo-urrechu,restaurantes
86909,Ottica Restaurante,40.444190200000,-3.665504400000,(+34) 91 416 25 85,info@otticarestaurante.com,"del Padre Claret, 1",http://www.esmadrid.com/restaurantes/ottica-restaurante,restaurantes
86907,El Cucurucho del Mar,40.419241010584,-3.706049099565,(+34) 915 220 895,,"Póstigo de San Martín, 6",http://www.esmadrid.com/restaurantes/cucurucho-mar,restaurantes
86885,Morgana,40.422285700000,-3.697895400000, (+34) 682820297,,"de Augusto Figueroa, 33",http://www.esmadrid.com/restaurantes/morgana,restaurantes
86871,La Chelinda,40.439887268449,-3.699112236500,(+34) 914 42 05 78,,"de Ponzano, 40",http://www.esmadrid.com/restaurantes/chelinda,restaurantes
86833,Gula Gula,40.419968300000,-3.707504700000,(+34) 910 133 747 ,reservas@gulagula.net," Preciados 46, esquina a la Plaza de Santo Domingo (Madrid)",http://www.esmadrid.com/restaurantes/gula-gula,restaurantes
86806,Clos Madrid,40.445996400000,-3.699544100000,(+34) 91 064 88 05,reservas@restauranteclosmadrid.es,"de Raimundo Fernández Villaverde, 28",http://www.esmadrid.com/restaurantes/clos-madrid,restaurantes
86793,Paperboy Perrito Bar,40.429888796905,-3.701126575470, (+34) 916 49 20 86,info@paperboyhotdogs.com,"de Luchana, 11",http://www.esmadrid.com/restaurantes/paperboy-perrito-bar,restaurantes
86785,Cr&ecirc;perie La Rue,40.423861434958,-3.701472580433,(+34) 91 189 70 87,creperielarue@gmail.com,"de Colón, 14",http://www.esmadrid.com/restaurantes/creperie-rue,restaurantes
86771,La Casa Tomada,40.423729900000,-3.679464200000,(+34) 915 13 84 48,info@lacasatomada.es,"de Jorge Juan, 55",http://www.esmadrid.com/restaurantes/casa-tomada,restaurantes
86767,Bangalore Modern Indian Cuisine,40.434676407792,-3.675715327263,(+34) 910 571 773,info@bangaloremadrid.com,"de Diego de León, 63",http://www.esmadrid.com/restaurantes/bangalore-modern-indian-cuisine,restaurantes
86752,Picoroco,40.426048253708,-3.693931549788,(+34) 918 61 62 26,picorocorestaurante@gmail.com,"Orellana, 19",http://www.esmadrid.com/restaurantes/picoroco,restaurantes
86741,Derzu Bar,40.462268449741,-3.591405451298,(+34) 91 233 71 48,info@derzubar.com,"Bahía de Palma, 4B",http://www.esmadrid.com/restaurantes/derzu-bar,restaurantes
86687,Haches,40.429902900000,-3.672497700000,(+34) 910 51 01 82,contacto@restaurantehaches.com,"de José Ortega y Gasset, 79",http://www.esmadrid.com/restaurantes/haches,restaurantes
86686,Taramara,40.454277400000,-3.621978100000,(+34) 910 581 121,taramara@taramara.es,"de los Arces, 11",http://www.esmadrid.com/restaurantes/taramara,restaurantes
86646,Casa Maravillas,40.423467350816,-3.680084645748,(+34) 91 577 74 77,jorgejuan54@casamaravillas.es,"de Jorge Juan, 54",http://www.esmadrid.com/restaurantes/casa-maravillas,restaurantes
86645,Gustos Madrid Plaza Mayor,40.414987346351,-3.708005100489,(+34) 91 366 40 30,reservas@gustosmadrid.es,"Mayor, 8",http://www.esmadrid.com/restaurantes/gustos-madrid-plaza-mayor,restaurantes
86595,Tapas Gratis El Biombo (Hogar Extreme&ntilde;o),40.422050100000,-3.709053700000,(+34) 91 559 79 53,,"Gran Vía, 59, 4",http://www.esmadrid.com/restaurantes/tapas-gratis-biombo-hogar-extremeno,restaurantes
86593,Restaurante de Casa de Castilla La Mancha en Madrid  ,40.415465100000,-3.704235300000,(+34) 91 522 05 11,info@casaclmmadrid.org,"de la Paz, 4, 1º dcha",http://www.esmadrid.com/restaurantes/restaurante-casa-castilla-mancha-madrid,restaurantes
86581,Restaurante Xiongzai,40.424842500000,-3.710710100000,(+34) 91 466 98 08,,"San Leonardo, 3",http://www.esmadrid.com/restaurantes/restaurante-xiongzai,restaurantes
86579,Cafeter&iacute;a Lily,40.423428554843,-3.709098100662,(+34) 691 59 37 01,,"de los Mostenses, 1",http://www.esmadrid.com/restaurantes/cafeteria-lily,restaurantes
86505,Japanese Club,40.433001300000,-3.683087700000,(+34) 91 024 05 19,info@japaneseclub.es,"de Juan Bravo, 11",http://www.esmadrid.com/restaurantes/japanese-club,restaurantes
86480,Gran Caf&eacute; de Madrid,40.415936428924,-3.708392679691,(+34) 91 542 90 99,info@grancafemadrid.com,"Mayor, 45",http://www.esmadrid.com/restaurantes/gran-cafe-madrid,restaurantes
86461,Zielou,40.472137163921,-3.682244738484,(+34 )91 299 90 78,reservas@zielou.com,"Agustín de Foxa, s/n",http://www.esmadrid.com/restaurantes/zielou,restaurantes
86459,Pink Monkey,40.427143100000,-3.692336800000,(+34) 913 10 52 72 ,info@restaurantepinkmonkey.com,"del Monte Esquinza, 15",http://www.esmadrid.com/restaurantes/pink-monkey,restaurantes
86397,Borax,40.422905827973,-3.698307573795,(+34) 915 22 28 72,boraxrestaurante@yahoo.es,"Pelayo, 28",http://www.esmadrid.com/restaurantes/borax,restaurantes
86374,Havana Blues,40.402185421294,-3.698524832726,(+34) 915 39 45 89,felitohernando@yahoo.es,"de Santa María de la Cabeza, 56",http://www.esmadrid.com/restaurantes/havana-blues,restaurantes
86373,Cuando sal&iacute; de Cuba,40.419440107338,-3.707073703408,(+34) 91 522 93 18,,"Ternera, 4",http://www.esmadrid.com/restaurantes/cuando-sali-cuba,restaurantes
86353,La Colonial de Huertas,40.413022258706,-3.695842623711,(+34) 914 29 89 36,,"de las Huertas, 66",http://www.esmadrid.com/restaurantes/colonial-huertas,restaurantes
86352,La Taberna de Elia,40.436446410455,-3.793716430664,(+34) 911 627 429,info@latabernadeelia.es,"de las Dos Castillas, 23",http://www.esmadrid.com/restaurantes/taberna-elia,restaurantes
86336,MAD13,40.449841390265,-3.688970804215,(+34) 916 49 29 92,direccion@mad13.com,"de la Habana, 13",http://www.esmadrid.com/restaurantes/mad13,restaurantes
86334,La Porciner&iacute;a,40.434187500000,-3.684587200000,(+34)910 33 38 74,info@laporcineria.com,"de Lagasca, 103",http://www.esmadrid.com/restaurantes/porcineria,restaurantes
86319,Restaurante Gourmand,40.439582079322,-3.697033524513,(+34) 91 545 84 48,taller@atelierbelge.es,"de Bretón de los Herreros, 29",http://www.esmadrid.com/restaurantes/restaurante-gourmand,restaurantes
86254,Foodtruck,40.423758319900,-3.696226179600,(+34) 91 189 36 96,foodtruck@outlook.es,"San Lucas, 11",http://www.esmadrid.com/restaurantes/foodtruck,restaurantes
86236,"Las chicas, los chicos y los maniqu&iacute;s",40.413175424264,-3.700574040413,(+34) 91 088 33 83 ,madrid@mitte-restaurant.com,"de Atocha, 49",http://www.esmadrid.com/restaurantes/chicas-chicos-maniquis,restaurantes
86233,Taberna La Elisa,40.412690200000,-3.696321400000,(+34) 91 421 64 09, info@eltriciclo.es,"de Santa María, 42",http://www.esmadrid.com/restaurantes/taberna-elisa,restaurantes
86221,Condumios Taberna,40.417144400000,-3.689871800000,(+34) 91 805 74 04,,"Juan de Mena, 12",http://www.esmadrid.com/restaurantes/condumios-taberna,restaurantes
86220,Graciela,40.462327630434,-3.686926960945,(+34) 91 502 87 83,,"Pedro Muguruza, 1",http://www.esmadrid.com/restaurantes/graciela,restaurantes
86121,Taberna Artesana Verdejo,40.424294312287,-3.679266571999,+34 91 011 22 48,cmoragregas@yahoo.es  ,"de Espartinas, 6",http://www.esmadrid.com/restaurantes/taberna-artesana-verdejo,restaurantes
86120,Vaca Nostra,40.474889082729,-3.687774538994,+ 34 91 378 88 06,reservas@vacanostra.com,"de la Castellana, 257",http://www.esmadrid.com/restaurantes/vaca-nostra,restaurantes
86107,La Gamella,40.418979600000,-3.689122300000,(+34) 91 532 45 09,restaurante@lagamella.com,"de Alfonso XII, 4",http://www.esmadrid.com/restaurantes/gamella,restaurantes
86105,Beker 6,40.436121811379,-3.687149584293,(+34) 91 173 43 97,info@beker6.com,"Hermanos Bécquer, 6",http://www.esmadrid.com/restaurantes/beker-6,restaurantes
86099,[A]Brasa,40.514525087853,-3.652396202087,+ 34 910 88 39 58,reservas@abrasamadrid.com,"de la Estafeta, 2",http://www.esmadrid.com/restaurantes/abrasa,restaurantes
86070,Glass Mar,40.416360000000,-3.698630000000,+34 917 877 770,glass@derbyhotels.com,"de San Jerónimo, 34",http://www.esmadrid.com/restaurantes/glass-mar,restaurantes
86048,Lux Madrid,40.423677000000,-3.684888500000,+ 34 91 833 42 55,luxmadrid@luxmadrid.es,"de Jorge Juan, 22",http://www.esmadrid.com/restaurantes/lux-madrid,restaurantes
86037,The One,40.431146300000,-3.684879700000,+34 91 575 41 30,lagasca.the.one@gmail.com,"de Lagasca, 81",http://www.esmadrid.com/restaurantes/one,restaurantes
86018,Membibre,40.434919000000,-3.713032500000,+34 91 543 31 48,restaurantemembibre@hotmail.com,"de Guzmán el Bueno, 40",http://www.esmadrid.com/restaurantes/membibre,restaurantes
85982,Fellina,40.430749500000,-3.694280900000,+ 34 91 410 92 50,info@fellinamadrid.com,"de Caracas, 21",http://www.esmadrid.com/restaurantes/fellina,restaurantes
85958,Santerra,40.428971500000,-3.678214300000,(+34) 914 01 35 80 ,santerrarestaurante@gmail.com,"del General Pardiñas, 56",http://www.esmadrid.com/restaurantes/santerra,restaurantes
85955,KIP,40.422514600000,-3.674866400000,+ 34 913 485 89,info@pollokip.com,"Duque de Sesto, 31",http://www.esmadrid.com/restaurantes/kip,restaurantes
85941,Superchulo,40.428534300000,-3.703241200000,(+34) 910 232 706,hola@superchulomadrid.com,"de Manuela Malasaña, 11",http://www.esmadrid.com/restaurantes/superchulo,restaurantes
85935,La Pav&iacute;a,40.441649989241,-3.697863668203,(+ 34) 91 750 47 94,reservas@lapavia.es,"de Ríos Rosas, 38",http://www.esmadrid.com/restaurantes/pavia,restaurantes
85930,Amargo Place to Be,40.422726500000,-3.703818900000,+34 910 847 990,info@amargoplacetobe.com,"del Pez, 2",http://www.esmadrid.com/restaurantes/amargo-place-be,restaurantes
85924,Rocacho,40.458028000000,-3.685373400000,(+ 34) 914 21 97 70,reservas@rocacho.com,"de Padre Damián, 38",http://www.esmadrid.com/restaurantes/rocacho,restaurantes
85914,Apartaco,40.429727500000,-3.701347700000,+34 686 974 916,reservas@apartaco.es,"de Luchana, 7",http://www.esmadrid.com/restaurantes/apartaco,restaurantes
85896,Tiendas de Se&ntilde;or&iacute;o,40.432167900000,-3.697291300000,+34 91 821 31 11,info@tiendadesenorio.com,"de Santa Engracia, 38",http://www.esmadrid.com/restaurantes/tiendas-senorio,restaurantes
85870,Rawcoco Green Bar Madrid,40.426271100000,-3.678655600000,(+ 34) 914 49 50 17,rawcoco@rawcoco.es,"del General Pardiñas, 21",http://www.esmadrid.com/restaurantes/rawcoco-green-bar-madrid,restaurantes
85855,Aduana,40.426414758391,-3.689319491386,+ 34 91 431 67 00,gran.melia.fenix@melia.com,"de Hermosilla, 2",http://www.esmadrid.com/restaurantes/aduana,restaurantes
85814,Shuwa Shuwa ,40.423364500000,-3.694036500000,+34 911 38 54 60,info@shuwashuwa.es,"del Conde de Xiquena, 12",http://www.esmadrid.com/restaurantes/shuwa-shuwa,restaurantes
85787,Doli,40.435109215515,-3.683992624283,(+ 34) 91 027 95 30,info@restaurantedoli.com,"de Diego de León, 13",http://www.esmadrid.com/restaurantes/doli,restaurantes
85784,Puerta de Atocha,40.406025284349,-3.692082166672,91 467 37 50 ,info@puertadeatocha.es,"de Tortosa, 10",http://www.esmadrid.com/restaurantes/puerta-atocha,restaurantes
85781,La Madre&ntilde;a,40.392360093690,-3.688659667969,(+ 34) 916 495 468,,"del Bronce, 4",http://www.esmadrid.com/restaurantes/madrena,restaurantes
85755,As Fontes,40.404317797823,-3.690802752972,(+ 34) 91 292 56 30,asfontes.reservas@gmail.com,"del General Lacy, 10",http://www.esmadrid.com/restaurantes/fontes,restaurantes
85749,Al Punto,40.461188903127,-3.635203242302,(+34) 91 300 14 47,alpunto85@yahoo.es,"de Machupichu, 85",http://www.esmadrid.com/restaurantes/punto,restaurantes
85732,El Vel&aacute;zquez 17,40.422938498521,-3.684496879578,(+ 34) 91 431 68 16,oficina@elvelazquez17.com,"de Velázquez, 17",http://www.esmadrid.com/restaurantes/velazquez-17,restaurantes
85677,NiM&Uacute; Barquillo,40.423940800000,-3.695477000000,(+34) 910 888 898,info@nimubarquillo.com,"del Barquillo, 40",http://www.esmadrid.com/restaurantes/nimu-barquillo,restaurantes
85600,Sargo. El arrecife de Madrid,40.430485480437,-3.676842525601,(+ 34) 91 010 66 57,reservas@sargomadrid.com,"del General Díaz Porlier, 57",http://www.esmadrid.com/restaurantes/sargo-arrecife-madrid,restaurantes
85516,The Mint Roof,40.419578500000,-3.698562600000,(+34) 91 203 06 50,themint@vinccihoteles.com,"Gran Vía, 10",http://www.esmadrid.com/restaurantes/mint-roof,restaurantes
85514,Taberna Recreo,40.424429075415,-3.679242432118,+ 34 91 033 43 79,info@recreoespartinas.com,"de Espartinas, 5",http://www.esmadrid.com/restaurantes/taberna-recreo,restaurantes
85508,Sushita Caf&eacute; - Miguel Angel,40.435478100000,-3.691534400000,(+ 34) 918 280 204,,"de Miguel Angel, 11",http://www.esmadrid.com/restaurantes/sushita-cafe-miguel-angel,restaurantes
85435,Marcano,40.420437100000,-3.675399600000,(+ 34) 914 093 642,sala@restaurantemarcano.com,"del Doctor Castelo, 31",http://www.esmadrid.com/restaurantes/marcano,restaurantes
85421,Lev&eacute;l Veggie Bistro,40.415662300000,-3.677615900000,(+ 34) 91 127 57 52,reservas@levelbistro.es,"de Menéndez Pelayo, 61",http://www.esmadrid.com/restaurantes/level-veggie-bistro,restaurantes
85416,Enigmatium,40.437241500000,-3.678256900000,(+ 34) 91 127 20 51,comercial@enigmatium.com,Primer enigma a resolver,http://www.esmadrid.com/restaurantes/enigmatium,restaurantes
85413,Latasia Casa de Comidas,40.456859900000,-3.690870900000,(+ 34) 91 555 93 33,,"de la Castellana, 115",http://www.esmadrid.com/restaurantes/latasia-casa-comidas,restaurantes
85406,Casa Jaguar,40.419104500000,-3.708648500000,(+34) 91 024 57 12 ,reservas@casajaguarmadrid.com,"de los Caños del Peral, 9",http://www.esmadrid.com/restaurantes/casa-jaguar,restaurantes
85405,Flores de Alcachofa,40.433318700000,-3.687520100000,(+ 34) 91 502 77 11,info@floresdealcachofa.com,"de la Castellana, 40",http://www.esmadrid.com/restaurantes/flores-alcachofa,restaurantes
85347,F&aacute;bula Buey &amp; Champagne,40.418299700000,-3.696188400000,(+ 34) 913 766 038,info@fabularestaurante.com,"del Marqués de Casa Riera, 1",http://www.esmadrid.com/restaurantes/fabula-buey-champagne,restaurantes
85339,Arima Basque Gastronomy,40.440776500000,-3.699244900000,(+34) 911 091 599,,"de Ponzano, 51",http://www.esmadrid.com/restaurantes/arima-basque-gastronomy,restaurantes
85300,&iexcl;Tu! Pasta,40.418881400000,-3.678776000000,(+ 34) 91 409 22 89,retiro@tu-pasta.com,"de Menéndez Pelayo, 27",http://www.esmadrid.com/restaurantes/tu-pasta,restaurantes
85265,Soy Kitchen,40.435977300000,-3.693172400000,(+ 34) 913 192 551,info@soykitchen.es,"de Zurbano, 59",http://www.esmadrid.com/restaurantes/soy-kitchen,restaurantes
85263,Kappo,40.439190000000,-3.693749200000,(+ 34) 91 042 00 66,info@kappo.es ,"de Bretón de los Herreros, 54",http://www.esmadrid.com/restaurantes/kappo,restaurantes
85236,Inti de Oro Inn,40.448718300000,-3.697349000000,(+ 34) 91 084 91 93 ,intideorocastellana@gmail.com,"Edgar Neville, 17",http://www.esmadrid.com/restaurantes/inti-oro-inn,restaurantes
85208,Ralph&rsquo;s,40.432623900000,-3.692915500000,(+ 34) 91 053 41 30,grupogamchulo@gmail.com,"de Eduardo Dato, 8",http://www.esmadrid.com/restaurantes/ralphs,restaurantes
85112,Steak Burger (Gran V&iacute;a),40.419794906504,-3.699460923672,(+ 34) 91 421 92 50,,"Gran Vía, 16",http://www.esmadrid.com/restaurantes/steak-burger-gran,restaurantes
85025,La Panera Rosa,40.429933700000,-3.673127000000,(+ 34) 91 129 54 69,panerarosamadrid@gmail.com,"de Ortega y Gasset, 73",http://www.esmadrid.com/restaurantes/panera-rosa,restaurantes
84926,Sugarcane,40.435177500000,-3.684916100000,(+ 34) 91 055 05 35,info@sugarcanemadrid.com,"de Diego de León, 7",http://www.esmadrid.com/restaurantes/sugarcane,restaurantes
84917,Sky Sushi &amp; Ramen Bar,40.421950500000,-3.690109000000,(+ 34) 91 017 51 16,info@skysushi.es,"de Recoletos, 11",http://www.esmadrid.com/restaurantes/sky-sushi-ramen-bar,restaurantes
84907,Ramen Shifu,40.427385628832,-3.676697015762,(+34) 914 017 730 ,info@ramenshifu.com,"de Ayala, 65",http://www.esmadrid.com/restaurantes/ramen-shifu,restaurantes
84906,Peyote San ,40.425267500000,-3.692049600000,(+ 34) 91 088 22 12,eventos@larrumba.com,"Marqués de la Ensenada, 16",http://www.esmadrid.com/restaurantes/peyote-san,restaurantes
84892,Numa Pompilio,40.423364000000,-3.683906400000,(+ 34) 91 685 97 19,,"de Velázquez, 18",http://www.esmadrid.com/restaurantes/numa-pompilio,restaurantes
84885,Narciso Brasserie,40.430404100000,-3.692387300000,(+ 34) 91 737 97 37,reservas@restaurantenarciso.com,"de Almagro, 32",http://www.esmadrid.com/restaurantes/narciso-brasserie,restaurantes
84881,Media Raci&oacute;n,40.426985500000,-3.697913000000,(+ 34) 91 447 51 11,restaurante@mediaracion.es,"de la Beneficiencia, 15",http://www.esmadrid.com/restaurantes/media-racion,restaurantes
84830,La Encarna Bistr&oacute; Andaluz,40.441015600000,-3.680730200000,(+ 34) 91 411 39 91,reservas@laencarna.es,"Recaredo, 2",http://www.esmadrid.com/restaurantes/encarna-bistro-andaluz,restaurantes
84809,Chow Chow,40.451951500000,-3.680666400000,(+ 34) 91 088 45 50,eventos@gruporantanplan.com,"de Concha Espina, 55",http://www.esmadrid.com/restaurantes/chow-chow,restaurantes
84808,Casa Suecia,40.417828300000,-3.696181900000,(+ 34) 91 051 35 92 ,sala@casasuecia.es,"del Marqués de Casa Riera, 4 ",http://www.esmadrid.com/restaurantes/casa-suecia,restaurantes
84802,Canalla Bistr&oacute;,40.425746600000,-3.688944300000,(+ 34) 91 577 00 25,info@plateamadrid.com,"de Goya, 5-7",http://www.esmadrid.com/restaurantes/canalla-bistro,restaurantes
84759,Art &amp; Sushi,40.428986800000,-3.703554300000,(+ 34) 910 398 833,,"de Carranza, 9",http://www.esmadrid.com/restaurantes/art-sushi,restaurantes
84757,Arallo Taberna,40.419930400000,-3.698540700000,(+34) 690 673 796,madrid@arallotaberna.com,"Reina, 31",http://www.esmadrid.com/restaurantes/arallo-taberna,restaurantes
84739,Al Socaire,40.413189800000,-3.675106300000,+ 34 91 493 88 04,reservas@alsocaire.com,"de Pio Baroja, 10",http://www.esmadrid.com/restaurantes/socaire,restaurantes
84700,La Encomienda,40.410575300000,-3.705963700000,(+34) 91 029 13 00,,"de la Encomienda, 19",http://www.esmadrid.com/restaurantes/encomienda,restaurantes
84694,Dos Cielos Madrid,40.419683617183,-3.709650635719,(+34) 91 541 67 00,doscielosmadrid@melia.com,"de Santo Domingo, 5",http://www.esmadrid.com/restaurantes/dos-cielos-madrid,restaurantes
84614,La Clave,40.424003800000,-3.684034500000,(+34) 91 053 20 31,reservas@restaurantelaclave.com,"de Velázquez, 22",http://www.esmadrid.com/restaurantes/clave,restaurantes
84609,Dans le noir?,40.416076600000,-3.711589900000,(+34) 91 296 27 61,reservas@danslenoir.com,"del Biombo, 5",http://www.esmadrid.com/restaurantes/dans-le-noir,restaurantes
84567,Madame Sushita,40.450022200000,-3.688219400000,(+ 34) 91 831 55 41,contacto@sushita.com,"de la Habana, 15",http://www.esmadrid.com/restaurantes/madame-sushita,restaurantes
84460,Honest Greens,40.449976700000,-3.691608700000,(+34) 91 421 50 11,hello@honestgreens.com,"de la Castellana, 89",http://www.esmadrid.com/restaurantes/honest-greens,restaurantes
84446,Esplore,40.420303400000,-3.699519300000,(+ 34) 91 000 94 88,,"del Clavel, 5",http://www.esmadrid.com/restaurantes/esplore,restaurantes
84444,Restaurante de la Residencia de Estudiantes,40.440657700000,-3.688052600000,(+ 34) 91 561 32 00,,"del Pinar, 21 - 23",http://www.esmadrid.com/restaurantes/restaurante-residencia-estudiantes,restaurantes
84431,Surya ,40.421090545692,-3.705525398254,(+ 34) 912 54 53 06,info@suryarestaurants.com,"de Tudescos, 4",http://www.esmadrid.com/restaurantes/surya,restaurantes
84163,Cruz Blanca de Vallecas,40.387682500000,-3.665024900000,(+34) 91 477 34 38,,"Carlos Martín Álvarez, 58 ",http://www.esmadrid.com/restaurantes/cruz-blanca-vallecas,restaurantes
83949,Radio Rooftop,40.414558700000,-3.701405600000,(+34) 91 701 60 00,memadrid@melia.com,"de Santa Ana, 14",http://www.esmadrid.com/restaurantes/radio-rooftop,restaurantes
83648,Alfredo&rsquo;s barbacoa (Conde de Aranda),40.421721509879,-3.687956929207,(+34 91 431 36 46   ,alfredosbbq@gmail.com,"Conde de Aranda, 4",http://www.esmadrid.com/restaurantes/alfredos-barbacoa-conde-aranda,restaurantes
83341,El Escondite de Villanueva,40.422379013188,-3.685993552208,(+34) 91 431 33 49,,"de Villanueva, 26",http://www.esmadrid.com/restaurantes/escondite-villanueva,restaurantes
83141,Reineta,40.414317007236,-3.699050545692,(+34) 91 420 18 32,evacosials@hotmail.com,"del Infante, 5",http://www.esmadrid.com/restaurantes/reineta,restaurantes
82937,La Primera,40.419135335914,-3.697879761457,(+34) 91 052 06 20,,"Gran Vía, 1",http://www.esmadrid.com/restaurantes/primera,restaurantes
82816,Somos,40.424369600000,-3.712326200000,(+34) 91 524 23 99  ,info@somosgarra.es,"de España, 18",http://www.esmadrid.com/restaurantes/somos,restaurantes
82768,Timesburg,40.437900000000,-3.678380200000,(+34) 91 126 16 81,hola@timesburg.com,"de Francisco Silvela, 91",http://www.esmadrid.com/restaurantes/timesburg,restaurantes
82715,A' kangas by Urrechu,40.514472070555,-3.653302788734, (+34) 91 555 56 00,reservas@akangas.com,"de la Estafeta, 4",http://www.esmadrid.com/restaurantes/kangas-urrechu,restaurantes
82652,El Flaco,40.448363623469,-3.670549392700,(+34) 91 199 65 02,info@elflaco.es,"Javier Ferrero, 8",http://www.esmadrid.com/restaurantes/flaco,restaurantes
82630,Kirei Las Cortes ,40.415170200000,-3.696794600000,(+34) 91 737 19 22,,"de San Agustín, 3",http://www.esmadrid.com/restaurantes/kirei-cortes,restaurantes
82603,Kirei Barajas,40.491103200000,-3.592673500000,(+34) 620 266 405,,"de la Hispanidad, s/n",http://www.esmadrid.com/restaurantes/kirei-barajas,restaurantes
82508,Lubora,40.452102800000,-3.696748000000,(+34) 91 126 16 50,hola@lubora.com,"Edgar Neville, 39",http://www.esmadrid.com/restaurantes/lubora,restaurantes
82352,El Imparcial,40.411961300000,-3.705850100000,(+34) 91 795 89 86,info@elimparcialmadrid.com,"del Duque de Alba, 4",http://www.esmadrid.com/restaurantes/imparcial,restaurantes
82351,Sidrer&iacute;a El Tigre ,40.420381800000,-3.698743400000,(+34) 91 532 00 72,,"de las Infantas, 30",http://www.esmadrid.com/restaurantes/tigre,restaurantes
82219,GastroV&iacute;a 61,40.422121730050,-3.709591627121,(+34) 91 547 26 00,gastrovia61@hotelmayorazgo.com,"de la Flor Baja, 3",http://www.esmadrid.com/restaurantes/gastrovia-61,restaurantes
82193,Ojal&aacute;,40.425524700000,-3.703961100000,(+34) 91 523 27 47,ojala@grupolamusa.com,"de San Andrés, 1",http://www.esmadrid.com/restaurantes/ojala,restaurantes
82089,La Taurina,40.416740700000,-3.701459500000,(+34) 91 531 39 69,info@lataurina.com,"de San Jerónimo, 5",http://www.esmadrid.com/restaurantes/taurina,restaurantes
82030,Los Arcos de Ponzano,40.437870800000,-3.699283200000,(+34)  91 442 58 84,los.arcos.de.ponzano@gmail.com,"de Ponzano, 16",http://www.esmadrid.com/restaurantes/arcos-ponzano,restaurantes
81852,Huerta de Caraba&ntilde;a,40.423669497892,-3.685461133719,(+34) 91 083 00 07,reservas@huertadecarabana.es,"de Lagasca, 32",http://www.esmadrid.com/restaurantes/huerta-carabana,restaurantes
81812,Robin Hood,40.412989583342,-3.710439205170,(+34) 910 558 811,reservasnuncio@restaurantesrobinhood.es,"del Nuncio, 19",http://www.esmadrid.com/restaurantes/robin-hood,restaurantes
81723,Taberna El Tempranillo,40.411997061599,-3.710165619850,(+34) 91 364 15 32,,"Cava Baja, 38",http://www.esmadrid.com/restaurantes/taberna-tempranillo,restaurantes
81487,Dingo,40.427289900000,-3.684296300000,(+34) 91 051 05 06,,"de Velázquez, 47",http://www.esmadrid.com/restaurantes/dingo,restaurantes
81464,El Invernadero,40.444549800000,-3.698943600000,(+34) 628 93 93 67,reservas@elinvernaderorestaurante.com,"de Ponzano, 85",http://www.esmadrid.com/restaurantes/invernadero,restaurantes
81461,Gayt&aacute;n,40.449672100000,-3.678055200000,(+34) 91 348 50 30,reservas@restaurantegaytan.com,"del Principe de Vergara, 205 ",http://www.esmadrid.com/restaurantes/gaytan,restaurantes
81456,A&acute;Barra ,40.438687938652,-3.687881827354,(+34) 91 021 00 61,reservas@restauranteabarra.com,"del Pinar, 15",http://www.esmadrid.com/restaurantes/abarra,restaurantes
81400,Makkila,40.435279683830,-3.686271160841,(+34) 91 563 34 31,,"Serrano, 110",http://www.esmadrid.com/restaurantes/makkila,restaurantes
81218,NuBel,40.407532574974,-3.695456385613,(+34) 91 530 17 61,info@nubel.es,"Argumosa, 43",http://www.esmadrid.com/restaurantes/nubel,restaurantes
81207,Pointer,40.425267500000,-3.692049600000,(+34) 91 088 45 50,eventos@pointermadrid.com,"del Marqués de la Ensenada, 16",http://www.esmadrid.com/restaurantes/pointer,restaurantes
81116,Five Guys,40.420463659555,-3.705552220345,(+34) 91 522 35 14,,"Gran Vía, 44",http://www.esmadrid.com/restaurantes/five-guys,restaurantes
81052,Angelita Madrid,40.420594100000,-3.700775000000,(+34) 91 521 66 78,info@madrid-angelita.es,"La Reina, 4",http://www.esmadrid.com/restaurantes/angelita-madrid,restaurantes
81032,Vila Brasil,40.442249500000,-3.671594200000,(+34) 91 510 10 20,puenteareas@vilabrasil.es,"Puenteáreas, 1",http://www.esmadrid.com/restaurantes/vila-brasil,restaurantes
81020,Sacha,40.460697081243,-3.686808943749,(+34)  91 345 59 52,,"de  Juan Hurtado de Mendoza, 11",http://www.esmadrid.com/restaurantes/sacha,restaurantes
80909,Alcuzcuz de Alhuzema,40.423891700000,-3.699667500000,(+34) 91 531 94 11,alcuzcuzalhuzema@hotmail.com,"Farmacia, 8",http://www.esmadrid.com/restaurantes/alcuzcuz-alhuzema,restaurantes
80818,Cannibal Raw Bar,40.422444900000,-3.694312100000,(+34) 91 026 87 94,info@cannibalrawbar.es,"del Almirante, 12",http://www.esmadrid.com/restaurantes/cannibal-raw-bar,restaurantes
80799,La Taberna Murciana,40.402638500000,-3.680855900000,(+34) 91 501 61 90,reservastellez@elcaldero.com,"de Téllez, 2",http://www.esmadrid.com/restaurantes/taberna-murciana,restaurantes
80779,Restaurante Mutis,40.436409300000,-3.688380000000,(+34) 91 342 24 90,emperatriz@barcelo.com,"de López de Hoyos, 4",http://www.esmadrid.com/restaurantes/restaurante-mutis,restaurantes
80768,Jimbo Smokehouse,40.440649800000,-3.700724600000,(+34) 91 000 55 40,info@jimbosmokehouse.com,"del Descubridor Diego de Ordás, 4",http://www.esmadrid.com/restaurantes/jimbo-smokehouse,restaurantes
80723,Garbel Madrid,40.420435200000,-3.698930900000,(+34) 91 601 52 66,info@garbelmadrid.com,"de las Infantas, 28",http://www.esmadrid.com/restaurantes/garbel-madrid,restaurantes
80718,Casa Macareno,40.425912300000,-3.704853300000,(+34) 91 166 09 21,,"de San Vicente Ferrer, 44",http://www.esmadrid.com/restaurantes/casa-macareno,restaurantes
80698,Taberna &amp; Media,40.420805100000,-3.677734300000,(+34) 91 867 58 42,info@tabernaymedia.com,"de Lope de Rueda, 30",http://www.esmadrid.com/restaurantes/taberna-media,restaurantes
80683,La Malaje,40.412792600000,-3.703387200000,(+34) 91 081 30 31,info@lamalaje.es,"de la Paja, 10",http://www.esmadrid.com/restaurantes/malaje,restaurantes
80618,Carlos Oyarbide,40.422452700000,-3.684918600000,(+34) 91 827 52 49,reservascarlosoyarbide@gmail.com,"de Villanueva, 21",http://www.esmadrid.com/restaurantes/carlos-oyarbide,restaurantes
80577,Amaz&oacute;nico,40.423747089538,-3.685129880905,(+34) 91 515 43 32,sala@restauranteamazanonico.com,"de Jorge Juan, 20",http://www.esmadrid.com/restaurantes/amazonico,restaurantes
80392,La Bekada,40.451420800000,-3.594446100000,(+34) 91 234 33 55,reservamesa@labekada.com,"Catamarán, 3",http://www.esmadrid.com/restaurantes/bekada,restaurantes
80259,El soportal,40.415411600000,-3.706751100000,(+34) 91 366 39 66,info@restauranteelsoportal.es,"Mayor, 33",http://www.esmadrid.com/restaurantes/soportal,restaurantes
80215,Bistronomika,40.412725800000,-3.696069700000,(+34) 91 138 62 98,bistronomika@bistronomika.es,"de Santa María, 39",http://www.esmadrid.com/restaurantes/bistronomika,restaurantes
80209,Bibo Madrid,40.435666553432,-3.688219785690,(+34) 91 805 25 56,,"de la Castellana, 52",http://www.esmadrid.com/restaurantes/bibo-madrid,restaurantes
80127,Puertalsol,40.417102470090,-3.704176247120,(+34) 91 487 36 85,info@puertalsol.com,"Puerta del Sol, 10",http://www.esmadrid.com/restaurantes/puertalsol,restaurantes
79662,Sal Negra,40.467590400000,-3.681163700000,(+34) 91 345 09 45,info@restaurantesalnegra.com,"Mateo Inurria, 33",http://www.esmadrid.com/restaurantes/sal-negra,restaurantes
79595,Jack Percoca,40.426454400000,-3.710995700000,(+34) 915 13 50 44,jack.percoca@gmail.com,"del Conde Duque, 14 ",http://www.esmadrid.com/restaurantes/jack-percoca,restaurantes
79579,Fismuler,40.428174400000,-3.697275800000,(+34) 91 827 75 81,info@fismuler.com,"de Sagasta, 29",http://www.esmadrid.com/restaurantes/fismuler,restaurantes
79575,Cebo ,40.416360000000,-3.698630000000,(+34) 91 787 77 80,cebo@derbyhotels.com,"de San Jerónimo, 34",http://www.esmadrid.com/restaurantes/cebo,restaurantes
79571,L&oacute;pez &amp; L&oacute;pez ,40.409546327931,-3.704087734222,(+34) 91 029 99 26,,"de Cabestreros, 4",http://www.esmadrid.com/restaurantes/lopez-lopez,restaurantes
79548,YOUnique,40.422220900000,-3.695704500000,(+34) 91 005 22 22,madrid@onlyyouhotels.com,"del Barquillo, 21",http://www.esmadrid.com/restaurantes/younique,restaurantes
79544,Lamian by Soy Kitchen,40.423600100000,-3.708917600000,(+34)  91 039 22 31,,"de Los Mostenses, 4",http://www.esmadrid.com/restaurantes/lamian-soy-kitchen,restaurantes
79539,Habanera,40.425360400000,-3.691774400000,(+34) 91 737 20 17,eventos@larrumba.com,"de Génova, 28",http://www.esmadrid.com/restaurantes/habanera,restaurantes
79535,Bar El Pescador ,40.406305800000,-3.710957100000,(+34) 91 365 52 18,,"de Toledo, 2 ",http://www.esmadrid.com/restaurantes/pescador-puerta-toledo,restaurantes
79534,Bar Alonso Cervecer&iacute;a Marisquer&iacute;a,40.443240174826,-3.680167794228,(+34) 91 561 10 32,,"de Gabriel Lobo, 18 ",http://www.esmadrid.com/restaurantes/bar-alonso-cerveceria-marisqueria,restaurantes
79521,Casa Emilio,40.443246298703,-3.675182908773,(+34) 91 561 10 38,,"de López de Hoyos, 98",http://www.esmadrid.com/restaurantes/casa-emilio,restaurantes
79452,Le Petit Comit&eacute;,40.420286006721,-3.699839115143,(+34) 91 070 93 03,contact@restaurante-petitcomite.com,"Reina, 15",http://www.esmadrid.com/restaurantes/petit-comite,restaurantes
78916,La Estaci&oacute;n de los Porches,40.388008710951,-3.672153353691,(+34) 91 478 60 31,restaurante@estaciondelosporches.com,"Timoteo Pérez Rubio, 2",http://www.esmadrid.com/restaurantes/estacion-porches,restaurantes
78903,La Carmencita,40.421184476011,-3.697248101234,(+34)  91 531 09 11,hola@tabernalacarmencita.es,"de la Libertad, 16",http://www.esmadrid.com/restaurantes/carmencita,restaurantes
78840,Florida Park,40.418087200000,-3.680092300000,(+34) 91 827 52 75,info@floridaretiro.com,"de Panamá, s/n. Parque de El Retiro",http://www.esmadrid.com/restaurantes/florida-park,restaurantes
78529,El Pel&iacute;cano,40.461440300000,-3.692147500000,(+34) 91 203 19 74,reservas@elpelicanomadrid.com,"del Poeta Joan Maragall, 43",http://www.esmadrid.com/restaurantes/pelicano,restaurantes
78474,La Matritense,40.432448000000,-3.701592000000,(+34) 91 522 53 07,info@vinomatritense.com,"de Olavide, 4",http://www.esmadrid.com/restaurantes/matritense,restaurantes
78429,Bodegas Rivas,40.426683300000,-3.707731700000,(+34) 91 421 79 54,bodegasrivas@bodegasrivasmadrid.es,"de La Palma, 61",http://www.esmadrid.com/restaurantes/bodegas-rivas,restaurantes
78264,Sif&oacute;n,40.420447200000,-3.695906000000,(+34) 91 532 61 59,sifon@sifonmadrid.com,"del Rey, 4",http://www.esmadrid.com/restaurantes/sifon,restaurantes
78206,KultO,40.418201800000,-3.678083800000,(+34) 91 173 30 53,kulto.espaciogastronomico@gmail.com,"de Ibiza, 4",http://www.esmadrid.com/restaurantes/kulto,restaurantes
78196,Taberna Pedraza,40.422131000000,-3.690846300000,(+34) 913 428 420,info@tabernapedraza.com,"de Recoletos, 4",http://www.esmadrid.com/restaurantes/taberna-pedraza,restaurantes
77821,La Exc&eacute;ntrica ,40.417288600000,-3.708581700000,(+34) 91 559 71 68,info@laexcentricamadrid.com,"de las Fuentes, 10",http://www.esmadrid.com/restaurantes/excentrica,restaurantes
77745,Oven Mozarella Bar,40.425247857709,-3.700563311577,(+34) 91 786 42 68,,"de Fuencarral, 72",http://www.esmadrid.com/restaurantes/oven-mozarella-bar,restaurantes
77718,Premiata Forner&iacute;a Ballar&oacute;,40.437838600000,-3.699795900000,(+34) 91 593 91 33,info@forneriaballaro.com,"de Santa Engracia, 90",http://www.esmadrid.com/restaurantes/premiata-forneria-ballaro,restaurantes
77682,Taberna Degusta,40.437112000000,-3.677133000000,(+34) 91 025 71 53,info@tabernadegusta.com,"Francisco Silvela, 83",http://www.esmadrid.com/restaurantes/taberna-degusta,restaurantes
77675,Ramen Kagura,40.416807000000,-3.708749000000,(+34) 91 548 36 06,info@hanatokura.es,"de las Fuentes, 1",http://www.esmadrid.com/restaurantes/ramen-kagura,restaurantes
77647,Antigua Taquer&iacute;a,40.409440300000,-3.704327900000,(+34) 91 530 82 70,antiguataqueria@gmail.com,"de Cabestreros, 4",http://www.esmadrid.com/restaurantes/antigua-taqueria,restaurantes
77642,El Rinc&oacute;n Guay,40.407483557924,-3.704165518284,(+34) 91 468 37 00,,"de Embajadores, 62",http://www.esmadrid.com/restaurantes/rincon-guay,restaurantes
77614,Mad Brewing,40.435156170902,-3.631281852722,(+34) 91 440 23 95,info@madbrewing.beer,"de Julián Camarillo, 19",http://www.esmadrid.com/restaurantes/mad-brewing,restaurantes
77550,Acoge un Plato Casa &Aacute;rabe,40.421668419270,-3.681669831276,,casa.arabe@acogeunplato.org," de Alcalá, 62",http://www.esmadrid.com/restaurantes/acoge-plato-casa-arabe,restaurantes
77541,Xareu,40.429244800000,-3.690047700000,(+34) 91 382 46 09,xareusidreria@gmail.com,"de la Castellana, 23",http://www.esmadrid.com/restaurantes/xareu,restaurantes
77520,Vinos 11 Casa Dani,40.409197900000,-3.711092300000,(+34) 91 365 26 21,casadani@outlook.com,"Calatrava, 11",http://www.esmadrid.com/restaurantes/vinos-11-casa-dani,restaurantes
77501,La Raquetista,40.420527900000,-3.677152600000,(+34) 91 831 18 42,info@laraquetista.com,"del Doctor Castelo, 19",http://www.esmadrid.com/restaurantes/raquetista,restaurantes
77496,Palo Cortado,40.440451500000,-3.697390400000,(+34) 91 547 25 00,tabernapalocortado@gmail.com,"de Espronceda, 18",http://www.esmadrid.com/restaurantes/palo-cortado,restaurantes
77290,Maestro Food &amp; More,40.414369082562,-3.703075200319,(+34) 673 30 96 15,info@maestromadrid.com,"de Jacinto Benavente, 2",http://www.esmadrid.com/restaurantes/maestro-food-more,restaurantes
77284,Restaurante Elkuru,40.419419600000,-3.698944600000,(+34) 91 127 20 49,comercial@elkuru.com,"Gran Vía, 7-9",http://www.esmadrid.com/restaurantes/restaurante-elkuru,restaurantes
77222,As Jamoner&iacute;a,40.414233278195,-3.703162372112,(+34) 91 129 92 44,,"de Jacinto Benavente, 2",http://www.esmadrid.com/restaurantes/jamoneria,restaurantes
77193,Mandar&iacute;n,40.424608200000,-3.691375200000,(+34) 91 060 98 89,reservas@royalmandarin.es,"de Recoletos, 37",http://www.esmadrid.com/restaurantes/mandarin,restaurantes
77192,Royal Canton&eacute;s,40.383014100000,-3.702540600000,(+34) 91 500 01 61,,"Olvido, 92",http://www.esmadrid.com/restaurantes/royal-cantones,restaurantes
77187,Kzen,40.421736900000,-3.676517600000,(+34) 91 431 44 37 ,info@restaurantekzen.es,de O´Donnell 31,http://www.esmadrid.com/restaurantes/kzen,restaurantes
77181,China T&eacute;,40.447049118514,-3.663843870163,(+34) 91 519 34 35,restaurante.chinate@chinate.es,"de Santa Hortensia, 60",http://www.esmadrid.com/restaurantes/china-te,restaurantes
77173,Casa Lafu,40.421969500000,-3.709483400000,(+34) 91 548 70 96,belen@casalafu.com,"de la Flor Baja, 1  ",http://www.esmadrid.com/restaurantes/casa-lafu,restaurantes
77168,Asia T&eacute;,40.470966500000,-3.685152700000,(+34) 91 314 78 18,,"de Agustín de Foxá, 27",http://www.esmadrid.com/restaurantes/asia-te,restaurantes
76872,Perrachica,40.433735245533,-3.702794909477,(+34) 91 737 77 75,eventos@larrumba.com,"Eloy Gonzalo, 10",http://www.esmadrid.com/restaurantes/perrachica,restaurantes
76861,La Vaquer&iacute;a Monta&ntilde;esa,40.428747800000,-3.692776700000,(+34) 91 138 71 06,vaqueriamontanesa@yahoo.es," Blanca de Navarra, 8",http://www.esmadrid.com/restaurantes/vaqueria-montanesa,restaurantes
76793,La Charca,40.423863476839,-3.714132606983,(+34) 91 547 28 94,reservas@lacharcataberna.com,"de Juan Álvarez de Mendizábal, 7",http://www.esmadrid.com/restaurantes/charca,restaurantes
76745,Floren Domez&aacute;in,40.422984500000,-3.681793100000,(+34) 91 576 76 23,reservasfloren@gmail.com,"de Castelló, 9",http://www.esmadrid.com/restaurantes/floren-domezain,restaurantes
76495,La Vanduca,40.421108200000,-3.688093400000,(+34) 91 578 23 21,info@lavanduca.es,Columela 2,http://www.esmadrid.com/restaurantes/vanduca,restaurantes
76447,Benares,40.427614000000,-3.693878900000,(+34) 91 319 87 16,reservas@benaresmadrid.com,"de Zurbano, 5",http://www.esmadrid.com/restaurantes/benares,restaurantes
76357,Da Giuseppina,40.431926380430,-3.700855672360,(+34) 91 445 85 39,info@dagiuseppina.com,"de Trafalgar, 17",http://www.esmadrid.com/restaurantes/da-giuseppina,restaurantes
76356,Marina Ventura ,40.415360900000,-3.698905900000,(+34) 91 429 38 10,arroceriamarina@gmail.com,"Ventura de la Vega, 13",http://www.esmadrid.com/restaurantes/marina-ventura,restaurantes
76323,L&uacute;a,40.432909400000,-3.695636700000,(+34) 91 395 28 53,luarestaurantemadrid@gmail.com," de Eduardo Dato, 5",http://www.esmadrid.com/restaurantes/lua,restaurantes
76304,Ronda 14,40.436296300000,-3.684494500000,(+34) 91 411 17 30,restaurante@ronda14.com,"del General Oraa, 25",http://www.esmadrid.com/restaurantes/ronda-14,restaurantes
76215,Swagat,40.424389100000,-3.682975900000,(+34) 91 577 95 66,swagat29@hotmail.com,"de Nuñez de Balboa, 29",http://www.esmadrid.com/restaurantes/swagat,restaurantes
76189,Cachivache,40.454682300000,-3.678157100000,(+34) 91 752 41 76,reservas@cachivaquetaberna.com,"Serrano, 221",http://www.esmadrid.com/restaurantes/cachivache,restaurantes
76164,Docamar,40.433750000000,-3.648170000000,(+34) 91 367 83 17,docamar@docamar.com,"de Alcalá, 337",http://www.esmadrid.com/restaurantes/docamar,restaurantes
76140,La Canica,40.456057700000,-3.619648700000,(+34) 91 320 15 03 ,reservas@lacanicamadrid.com,"de los Andes, 25, Locales 2 y 3",http://www.esmadrid.com/restaurantes/canica,restaurantes
76127,Sal Gorda,40.448033700000,-3.715251000000,(+34) 91 553 95 06,info@restaurantesalgorda.es,"Beatriz de Bobadilla, 9 posterior",http://www.esmadrid.com/restaurantes/sal-gorda,restaurantes
76109,Taberna Los Gallos,40.423477800000,-3.686283000000,(+34) 91 431 06 47,info@tabernalosgallos.com,"Puigcerdá, 4 y 6",http://www.esmadrid.com/restaurantes/taberna-gallos,restaurantes
76102,Filand&oacute;n,40.504765500000,-3.716732900000,(+34) 91 734 38 26 ,,"Fuencarral-El Pardo (M - 612) Km. 1,9",http://www.esmadrid.com/restaurantes/filandon,restaurantes
76097,Kil&oacute;metros de pizza ,40.454115300832,-3.693273067474,(+34) 91 ­755 72 32,info@kilometrosdepizza.com,"de Brasil, 6",http://www.esmadrid.com/restaurantes/kilometros-pizza,restaurantes
75870,Kirikata,40.421336300000,-3.678847600000,(+34) 91 435 88 29,reservaskirikata@arzabal.com,"Doctor Castelo, 2",http://www.esmadrid.com/restaurantes/kirikata,restaurantes
75845,Restaurante Navaja,40.423289000000,-3.701505600000,(+34) 636 85 23 04,navajarestaurante@gmail.com,"de Valverde, 40 - 42",http://www.esmadrid.com/restaurantes/restaurante-navaja,restaurantes
75811,Naia Bistro,40.412901768223,-3.711364567280,(+34) 91 366 27 83,,"de la Paja, 3",http://www.esmadrid.com/restaurantes/naia-bistro,restaurantes
75809,Lambuzo (Conchas),40.418821884465,-3.708156645298,(+34) 91 143 48 62,info@barlambuzo.com,"de las Conchas, 9",http://www.esmadrid.com/restaurantes/lambuzo-conchas,restaurantes
75797,La Plater&iacute;a,40.412710200000,-3.694356500000,(+34) 91 429 17 22,,"de Moratín, 49",http://www.esmadrid.com/restaurantes/plateria,restaurantes
75784,La Palma 60,40.426764926738,-3.707781136036,(+34) 91 521 31 06,info@lapalma60.com,"de La Palma, 60",http://www.esmadrid.com/restaurantes/palma-60,restaurantes
75730,Toque de Sal,40.440345700000,-3.699076000000,(+34) 91 426 64 65,info@toquedesal.com,"de Ponzano, 46",http://www.esmadrid.com/restaurantes/toque-sal,restaurantes
75721,Arzabal (Reina Sof&iacute;a),40.408563600000,-3.694034900000,(+34) 91 528 68 28,,"de  Santa Isabel, 52",http://www.esmadrid.com/restaurantes/arzabal-reina-sofia,restaurantes
75424,Restaurante Et&iacute;ope Hanan,40.425883700000,-3.713369900000,(+34) 91 548 99 29,info@restauranteetiope.com,"Ventura Rodríguez, 3",http://www.esmadrid.com/restaurantes/restaurante-etiope-hanan,restaurantes
75410,ElMandela,40.417357730346,-3.710262179375,(+34) 91 142 98 00,elmandela.madrid@gmail.com,"Independencia, 1",http://www.esmadrid.com/restaurantes/elmandela,restaurantes
75282,La berenjena,40.410041800000,-3.696110100000,(+34) 91 467 52 97,,"del Marqués de Toca, 7",http://www.esmadrid.com/restaurantes/berenjena,restaurantes
75232,La Bobia,40.411341700000,-3.707607300000,(+34) 91 737 60 30,,"de San Millán, 3",http://www.esmadrid.com/restaurantes/bobia,restaurantes
75211,La Pescader&iacute;a,40.422910000000,-3.703100000000,(+34) 91 523 90 51,barlapescaderia@gmail.com,"de la Ballesta, 32",http://www.esmadrid.com/restaurantes/pescaderia,restaurantes
75184,El puchero de mi abuela,40.403273200000,-3.695378700000,(+34) 91 528 52 47,reservas@elpucherodemiabuela.es,"de Palos de la Frontera, 21",http://www.esmadrid.com/restaurantes/puchero-mi-abuela,restaurantes
75180,Los Chanquetes,40.412232800000,-3.698360700000,(+34) 91 429 02 45,loschanquetes@yahoo.es,"de Moratín, 2",http://www.esmadrid.com/restaurantes/chanquetes,restaurantes
75178,O Pazo de Lugo,40.407462600000,-3.696459600000,(+34) 91 539 60 57,info@opazodelugo.es,Argumosa 28,http://www.esmadrid.com/restaurantes/o-pazo-lugo,restaurantes
75164,La Giralda IV,40.433675600000,-3.685311500000,(+34) 91 576 40 69,lagiralda4@hotmail.com,"de Claudio Coello, 24",http://www.esmadrid.com/restaurantes/giralda-iv,restaurantes
75163,La Giralda II,40.430410400000,-3.701756800000,(+34) 91 445 77 79,reservas@restauranteslagiralda.com,"de Hartzenbusch, 12",http://www.esmadrid.com/restaurantes/giralda-ii,restaurantes
75104,Bocadillo de Jam&oacute;n y Champ&aacute;n (Fernando VI),40.424989100000,-3.695547300000,,hola@bdej.es,"de Fernando VI, 21",http://www.esmadrid.com/restaurantes/bocadillo-jamon-champan-fernando-vi,restaurantes
75082,El Perro y La Galleta,40.420512300000,-3.687363000000,(+34) 606 82 24 21,,"de Claudio Coello, 1",http://www.esmadrid.com/restaurantes/perro-galleta,restaurantes
69306,La Chalana (Plaza Espa&ntilde;a),40.424650400000,-3.711378800000,(+34) 91 541 76 83,lachalanaplazaespana@lachalana.com,"San Leonardo, 12",http://www.esmadrid.com/restaurantes/la-chalana-plaza-espana,restaurantes
69305,Askuabarra,40.417071800000,-3.698826700000,(+34) 91 593 75 07,,"de Arlabán, 7",http://www.esmadrid.com/restaurantes/askuabarra,restaurantes
69304,Goch&uuml;,40.443437700000,-3.702612700000,(+34) 91 598 83 22,info@restaurantekuiru.com,"de Santa Engracia, 141",http://www.esmadrid.com/restaurantes/gochu,restaurantes
69303,Izariya,40.436260633817,-3.693203330040,(+34) 91 308 38 12,izariyamadrid@gmail.com,"de Zurbano, 63",http://www.esmadrid.com/restaurantes/izariya,restaurantes
69300,Punto B&aacute;sico,40.429663500000,-3.718798000000,(+34) 91 758 25 96,puntobasico.restaurante@gmail.com,"del Marqués de Urquijo, 23",http://www.esmadrid.com/restaurantes/punto-basico,restaurantes
69299,Gioia,40.422150317114,-3.698390722275,(+34) 91 521 55 47,info@gioiamadrid.es,"de San Bartolomé , 23",http://www.esmadrid.com/restaurantes/gioia,restaurantes
69298,La peseta de Do&ntilde;a Casilda,40.427680600000,-3.693688900000,(+34) 91 308 45 69,,"de Zurbano, 10",http://www.esmadrid.com/restaurantes/la-peseta-de-dona-casilda,restaurantes
69296,Hattori Hanzo,40.420878181010,-3.703873157501,(+34) 91 786 57 80,hola@hattori-hanzo.com.es,"de Mesoneros Romanos , 17",http://www.esmadrid.com/restaurantes/hattori-hanzo,restaurantes
69294,Tatel,40.432469453394,-3.687812089920,(+34) 91 172 18 41,reservations.madrid@tatelrestaurants.com,"de la Castellana , 36 ",http://www.esmadrid.com/restaurantes/tatel,restaurantes
69293,&Aacute;tico,40.419357600000,-3.697188900000,(+34) 91 532 94 96,info@restauranteatico.es,"Marqués de Valdeiglesias, 1",http://www.esmadrid.com/restaurantes/atico,restaurantes
69292,La Tasquer&iacute;a,40.422283300000,-3.673793600000,(+34) 91 451 10 00,info@latasqueria.com,"del Duque de Sesto, 48",http://www.esmadrid.com/restaurantes/tasqueria,restaurantes
69290,Bar Galleta,40.422706500000,-3.703653200000,(+34) 619 83 05 03,info@bargalleta.es,"Baja de San Pablo, 31",http://www.esmadrid.com/restaurantes/bar-galleta,restaurantes
69289,El Columpio,40.430629400000,-3.694249300000,(+34) 663 52 45 75,info@elcolumpiomadrid.com,"deCaracas, 10",http://www.esmadrid.com/restaurantes/el-columpio,restaurantes
69288,Marieta,40.433846600000,-3.687640600000,(+34) 91 575 75 53 ,reservas@marietamadrid.com ,"de la Castellana, 44",http://www.esmadrid.com/restaurantes/marieta,restaurantes
69286,La Ver&oacute;nica,40.412562759942,-3.695257902145,(+34) 91 429 78 27,info@restaurantelaveronica.com,"de Moratín, 38",http://www.esmadrid.com/restaurantes/la-veronica,restaurantes
69283,La Lonja del Mar,40.418610600000,-3.711166000000,(+34) 91 541 33 33,reservas@lalonjadelmar.com,"de Oriente, 6",http://www.esmadrid.com/restaurantes/lonja-mar-0,restaurantes
69281,La Gloria de Montera,40.419473100000,-3.700779700000,(+34) 91 523 44 07,gloria@andilana.com,"del Caballero de Gracia, 10",http://www.esmadrid.com/restaurantes/gloria-montera,restaurantes
69279,Atelier Belge,40.439567900000,-3.697072600000,(+34) 91 545 84 48,info@atelierbelge.es,"de Bretón de los Herreros, 39",http://www.esmadrid.com/restaurantes/atelier-belge,restaurantes
69278,Sal&oacute;n de Tapas Plaza Mayor,40.415073627138,-3.706269711256,(+34) 91 128 80 20,info@salondetapas.com,"de Gerona, 4",http://www.esmadrid.com/restaurantes/salon-de-tapas-plaza-mayor,restaurantes
69277,Taberna Corrientes,40.414766300000,-3.707696000000,(+34) 91 364 09 01,,"de Toledo, 4",http://www.esmadrid.com/restaurantes/taberna-corrientes,restaurantes
69275,Taste Gallery,40.415375700000,-3.709472600000,(+34) 91 758 93 39,info@tastegallery.es,"de San Miguel , 8",http://www.esmadrid.com/restaurantes/taste-gallery,restaurantes
69274,Metro Bistro (Plaza Mayor),40.414534200000,-3.706725700000,(+34) 91 366 33 19,plazamayor@metro-bistro.com,"Imperial, 3",http://www.esmadrid.com/restaurantes/metro-bistro-plaza-mayor,restaurantes
69273,Sal&oacute;n Cascabel,40.427641900000,-3.687230100000,(+34) 91 432 54 90,,"Serrano, 52",http://www.esmadrid.com/restaurantes/salon-cascabel,restaurantes
69272,Picsa,40.444226900000,-3.698757600000,(+34) 91 534 10 09 ,hola@casapicsa.com,"de Ponzano, 76",http://www.esmadrid.com/restaurantes/picsa,restaurantes
69271,Mama Campo,40.432160900000,-3.700554300000,(+34) 91 447 41 38,hola@mamacampo.es,"de Trafalgar, 22",http://www.esmadrid.com/restaurantes/mama-campo,restaurantes
69269,Desencaja,40.456085900000,-3.681123600000,(+34) 91 457 56 68,,"de la Habana, 84",http://www.esmadrid.com/restaurantes/desencaja,restaurantes
69265,Bacira,40.433753900000,-3.699036300000,(+34) 91 866 40 30,info@bacira.es,"del Castillo, 16",http://www.esmadrid.com/restaurantes/bacira,restaurantes
69263,Celso y Manolo,40.420201400000,-3.697476900000, (+34) 91 531 80 79 ,celsoymanolo@yahoo.es,"Libertad, 1",http://www.esmadrid.com/restaurantes/celso-y-manolo,restaurantes
69262,T&aacute;ndem,40.412696500000,-3.695963600000,(+34) 91 016 80 67,info@tandemrestaurante.com,"de Santa María, 39",http://www.esmadrid.com/restaurantes/tandem,restaurantes
69261,Alabaster,40.418186808977,-3.689847886562,(+34) 91 512 11 31,info@restaurantealabaster.com,"de Montalbán, 9",http://www.esmadrid.com/restaurantes/alabaster,restaurantes
69260,Ana La Santa,40.414517139643,-3.701459169388,(+34) 91 701 60 13,reservas.ana@encompaniadelobos.com,"de Santa Ana, 14",http://www.esmadrid.com/restaurantes/ana-la-santa,restaurantes
69259,Montia,40.593341700000,-4.147647500000,(+34) 91 133 69 88 ,,"Calvario, 4 ",http://www.esmadrid.com/restaurantes/montia,restaurantes
69258,La Cabra,40.428715500000,-3.699347600000,(+34) 91 445 77 50,reservas@restaurantelacabra.com,"Francisco de Rojas, 2",http://www.esmadrid.com/restaurantes/la-cabra,restaurantes
69257,Bosco de Lobos,40.424039078350,-3.698602616787,(+34) 91 524 94 64,reservas.bosco@encompaniadelobos.com,"de Hortaleza, 63",http://www.esmadrid.com/restaurantes/bosco-de-lobos,restaurantes
69256,Vietnam Mekong,40.421330400000,-3.709242800000,(+34) 91 548 94 50,vietnammekongrestaurante@gmail.com,"de Isabel La Católica, 11",http://www.esmadrid.com/restaurantes/vietnam-mekong,restaurantes
69255,StreetXO,40.427641900000,-3.687230100000,(+34)  91 531  98 84,,"Serrrano , 52",http://www.esmadrid.com/restaurantes/streetxo,restaurantes
69254,Caf&eacute; Col&oacute;n Madrid,40.425194900000,-3.688768100000,(+34) 91 431 86 15,info@cafecolonmadrid.com,"de Goya, 2",http://www.esmadrid.com/restaurantes/cafe-colon-madrid,restaurantes
69252,DSTAgE Concept,40.424629177744,-3.696373701096,(+34) 91 702 15 86,reservas@dstageconcept.com,"de Regueros, 8",http://www.esmadrid.com/restaurantes/dstage-concept,restaurantes
69251, Yakitoro ,40.419687701198,-3.697232007980,(+34) 91 737 14 41,info@yakitoro.com,"Reina, 41",http://www.esmadrid.com/restaurantes/yakitoro,restaurantes
69249,Platea Madrid,40.425746600000,-3.688944300000,(+34) 91 577 00 25,info@plateamadrid.com,"de Goya, 5 - 7",http://www.esmadrid.com/restaurantes/platea-madrid,restaurantes
69248,La Buga del Lobo,40.408288249983,-3.699125647545, (+34) 91 528 88 38,cm@labocadellobo.com	,"Argumosa , 11",http://www.esmadrid.com/restaurantes/la-buga-del-lobo,restaurantes
69247,Miyama ,40.422197200000,-3.709814200000,(+34) 91 540 13 86,miyamaflorbaja@gmail.com,"de la Flor Baja, 5",http://www.esmadrid.com/restaurantes/miyama,restaurantes
69246,Nakeima Dumpling Bar,40.433139101236,-3.715369105339,(+34) 620 70 93 99,nakeima54@gmail.com,"de Meléndez Valdés, 54",http://www.esmadrid.com/restaurantes/nakeima-dumpling-bar,restaurantes
69245,80&ordm;,40.428711800000,-3.703639100000,(+34) 91 445 83 51,grupo@ochentagrados.com,"de Manuela Malasaña, 10",http://www.esmadrid.com/restaurantes/ochenta-grados,restaurantes
69240,Matute 12,40.413527600000,-3.699924700000,(+34) 91 012 31 28 ,hola@grupolafabrica.es,"de Matute, 12",http://www.esmadrid.com/restaurantes/matute-12,restaurantes
69239,Arz&aacute;bal Retiro,40.420347100000,-3.679313800000,(+34) 91 409 56 61,comunicacion@arzabal.com,"de Menéndez Pelayo, 13",http://www.esmadrid.com/restaurantes/arzabal-retiro,restaurantes
69233,Sala de Despiece,40.437886300000,-3.699494400000,(+34) 91 752 61 06,info@saladedespiece.com,"de Ponzano, 11",http://www.esmadrid.com/restaurantes/sala-de-despiece,restaurantes
69228,Triciclo,40.412832700000,-3.697239100000,(+34) 91 024 47 98,info@eltriciclo.es,"de Santa María, 28",http://www.esmadrid.com/restaurantes/triciclo,restaurantes
69221,Taj,40.417251100000,-3.695678500000,(+34) 91 521 63 27  ,,"del Marqués de Cubas, 6",http://www.esmadrid.com/restaurantes/taj,restaurantes
69219,La Rebonita,40.411601300000,-3.700560200000,(+34) 606 77 62 32,,"del Olmo, 23",http://www.esmadrid.com/restaurantes/rebonita,restaurantes
69218,Mar&iacute;a Bonita Taco Bar (Duque de Liria),40.426118000000,-3.712446300000,(+34) 608 83 39 20,mariabonitatacobar1@gmail.com,"Duque de Liria, 9",http://www.esmadrid.com/restaurantes/maria-bonita-taco-bar-duque-liria,restaurantes
69216,Bodega de Los Secretos,40.410684300000,-3.694688200000,(+34) 91 429 03 96 ,info@bodegadelossecretos.com,"de San Blas, 4",http://www.esmadrid.com/restaurantes/bodega-secretos,restaurantes
69215,Arahy,40.419668300000,-3.689611200000,(+34) 91 531 60 85,reservas@arahyrestaurante.com,"de Alcalá, 58",http://www.esmadrid.com/restaurantes/arahy,restaurantes
69214,Los Chuchis,40.407354887997,-3.701148033142,(+34) 91 127 66 06,,"del Amparo, 82",http://www.esmadrid.com/restaurantes/los-chuchis,restaurantes
69211,Zombie Bar,40.423244600000,-3.704790400000,(+34) 910 11 19 52,info@zombiebar.es,"del Pez, 7",http://www.esmadrid.com/restaurantes/zombie-bar,restaurantes
69206,Aroy Thai,40.447545200000,-3.698688500000,(+34) 91 554 23 88 ,aroythai@hotmail.com,"del Aviador Zorita, 3",http://www.esmadrid.com/restaurantes/aroy-thai,restaurantes
69205,Saporem,40.415651600000,-3.698893000000,(+34) 91 420 44 74,reservassaporem@room007.com,"de Ventura de la Vega, 5",http://www.esmadrid.com/restaurantes/saporem,restaurantes
69201,Juanyta Me Mata,40.434466300000,-3.676745100000,(+34) 912 19 21 65 ,,"de Diego de León, 60",http://www.esmadrid.com/restaurantes/juanyta-me-mata,restaurantes
69198,El Mandil,40.423771200000,-3.701212800000,(+34) 91 531 62 55,reservas@elmandilmadrid.com,"de Colón, 5",http://www.esmadrid.com/restaurantes/el-mandil,restaurantes
68872,La huerta de Tudela,40.414973800000,-3.698539000000,(+34) 91 420 44 18,info@lahuertadetudela.com,"del Prado, 15",http://www.esmadrid.com/restaurantes/huerta-tudela,restaurantes
68969,Fuente de la Fama,40.411623330482,-3.697865009308,(+34) 91 530 12 47 ,reservas@restaurantefuentedelafama.com,"Atocha, 68",http://www.esmadrid.com/restaurantes/fuente-de-la-fama,restaurantes
68927,Tacos Chapultepec,40.430143100000,-3.701755700000,(+34) 91 292 29 00,chapultepec@tacoschapultepec.com,"del Cardenal Cisneros, 13",http://www.esmadrid.com/restaurantes/tacos-chapultepec,restaurantes
69012,Du Liban,40.514419053214,-3.652782440186,(+34) 91 625 00 72,reservas@dulibanrestaurants.com,"Estafeta, 2 (La Moraleja)",http://www.esmadrid.com/restaurantes/du-liban,restaurantes
68968,Taberna Casa Curro,40.412370300000,-3.709149200000,(+34) 91 364 22 59,,"Cava Baja, 23",http://www.esmadrid.com/restaurantes/taberna-casa-curro,restaurantes
69067,Donde M&oacute;nica,40.431764300000,-3.686058200000,(+34) 91 577 76 57,info@dondemonica.es,"de Padilla, 3",http://www.esmadrid.com/restaurantes/donde-monica,restaurantes
69013,M29,40.437610400000,-3.691762200000,(+34) 91 452 05 21,m29.miguelangel@grupobluebay.com,"de Miguel Ángel, 29",http://www.esmadrid.com/restaurantes/m29,restaurantes
68807,Materia Prima ,40.455560286467,-3.688466548920,(+34) 91 344 01 77,reservas@materia-prima.es,"del Doctor Fleming, 7",http://www.esmadrid.com/restaurantes/materia-prima,restaurantes
68808,Terramundi,40.413558900000,-3.696181400000,(+34) 91 429 63 80,reservasterramundi@gmail.com,"de Lope de Vega, 32",http://www.esmadrid.com/restaurantes/terramundi,restaurantes
69011,Chir&oacute;n,40.191619800000,-3.676409600000,(+34) 91 895 69 74,chiron@restaurantechiron.com,"Alarcón, 27 (Valdemoro)",http://www.esmadrid.com/restaurantes/chiron,restaurantes
68747,Mentidero de la Villa Restaurante,40.429118500000,-3.693823200000,(+34) 91 308 12 85,reservas@mentiderodelavilla.es,"de Almagro, 20",http://www.esmadrid.com/restaurantes/mentidero-de-la-villa-restaurante,restaurantes
68967,Costello R&iacute;o,40.393937145152,-3.697800636292,(+34) 91 621 61 97,rio@costellorio.com,"del General Maroto, 4",http://www.esmadrid.com/restaurantes/costello-rio,restaurantes
68871,Thai Orchid,40.420508000000,-3.696878200000,(+34) 91 531 85 37,restaurantethaiorchid@gmail.com,"Colmenares, 5",http://www.esmadrid.com/restaurantes/thai-orchid,restaurantes
69066,Restaurante Maru,40.419752600000,-3.697785400000,(+34) 91 523 95 31 ,reservas@restaurantemaru.es,"de la Reina, 37",http://www.esmadrid.com/restaurantes/restaurante-maru,restaurantes
69150,Mu&ntilde;agorri,40.431181400000,-3.677346300000,(+34) 91 401 47 41,reservas@restaurantemunagorri.es,"de Padilla, 56",http://www.esmadrid.com/restaurantes/munagorri,restaurantes
68966,Taberna del Chato,40.414820000000,-3.702661300000,(+34) 91 523 16 29,info@tabernadelchato.com,"de la Cruz, 35",http://www.esmadrid.com/restaurantes/taberna-del-chato,restaurantes
69149,Asgaya,40.462411700000,-3.687574700000,(+34) 91 353 05 87 ,reservas@restauranteasgaya.com,"del Doctor Fleming, 52",http://www.esmadrid.com/restaurantes/asgaya,restaurantes
69063,El Patio de la Central (La Central de Callao),40.419299500000,-3.705970600000,(+34) 647 24 09 14,eventosen@elpatiodelacentral.com,"del Postigo de San Martín, 8",http://www.esmadrid.com/restaurantes/patio-central-central-callao,restaurantes
68884,Casa Mono,40.429210700000,-3.716554700000,(+34) 91 452 95 52,info@casamonomadrid.com,"Tutor, 37",http://www.esmadrid.com/restaurantes/casa-mono,restaurantes
68870,La Revoltosa,40.420021000000,-3.695743400000,(+34) 91 531 90 96,,"del Rey, 4",http://www.esmadrid.com/restaurantes/la-revoltosa,restaurantes
68746,T&aacute;mara Restaurante Lorenzo,40.417638100000,-3.673358900000,(+34) 91 415 51 76  ,tamararestaurantelorenzo@hotmail.com,"de Máiquez, 48",http://www.esmadrid.com/restaurantes/tamara-restaurante-lorenzo,restaurantes
68549,El Tendido,40.432355122608,-3.714424967766,(+34) 91 544 88 88 ,reservas@eltendido.com,"de Andrés Mellado, 20",http://www.esmadrid.com/restaurantes/el-tendido,restaurantes
69009,Camino Food &amp; Drinks,40.450465961490,-3.688021302223,(+34) 91 411 24 01 ,info@caminomadrid.com,"Gutiérrez Solana, 6",http://www.esmadrid.com/restaurantes/camino-food-drinks,restaurantes
68932,El Bund,40.456711354481,-3.658468723297,(+34) 91 115 18 13,reservas@elbund.com,"de Arturo Baldasano, 22",http://www.esmadrid.com/restaurantes/el-bund,restaurantes
68970,Chifa,40.443955644003,-3.695716559887,(+34) 91 534 75 66,,"de Modesto Lafuente, 64",http://www.esmadrid.com/restaurantes/chifa,restaurantes
68744,La Ca&ntilde;a,40.431093200000,-3.701822200000,(+34) 91 125 00 20,lacana@andilana.com,"de Alburquerque, 8",http://www.esmadrid.com/restaurantes/la-cana,restaurantes
69147,Gobu Burger,40.424123000000,-3.678550600000,(+34) 91 575 76 41,goburestaurante@gmail.com,"del General Pardiñas, 8",http://www.esmadrid.com/restaurantes/gobu-burger,restaurantes
68816,Murillo Caf&eacute;,40.413059400000,-3.691327100000,(+34) 91 369 36 89,oficina@murillocafe.com,"Ruiz de Alarcón, 27",http://www.esmadrid.com/restaurantes/murillo-cafe,restaurantes
69138,Punto MX,40.427614000000,-3.678343000000,(+34) 91 402 22 26,puntomx@puntomx.es,"del General Pardiñas, 40",http://www.esmadrid.com/restaurantes/punto-mx,restaurantes
69139,Tommy Mel's ,40.417130038244,-3.701728731394,(+34) 91 532 59 70,,"de Alcalá, 4",http://www.esmadrid.com/restaurantes/tommy-mels,restaurantes
69196,La Castafiore,40.423030900000,-3.693459300000,(+34) 91 319 42 21,lacastafiore@lacastafiore.es,"Marqués de Monasterio, 5",http://www.esmadrid.com/restaurantes/la-castafiore,restaurantes
68498,La Rue,40.423861434958,-3.701472580433,(+34) 91 189 70 87,creperielarue@gmail.com,"de Colón, 14",http://www.esmadrid.com/restaurantes/la-rue,restaurantes
68458,Restaurante Vegetariano,40.416362000000,-3.710527500000,(+34) 91 758 35 88,,"de Santiago, 9",http://www.esmadrid.com/restaurantes/restaurante-vegetariano,restaurantes
68450,Hare Krishna,40.425444900000,-3.704338600000,(+34) 91 521 30 96 ,harekrisnamadrid@gmail.com,"del Espíritu Santo, 19",http://www.esmadrid.com/restaurantes/hare-krishna,restaurantes
68742,El Econ&oacute;mico. Soidemersol.,40.408352584085,-3.699545413256,(+34) 91 539 41 95 ,infoeconomico@yahoo.es,"Argumosa, 9",http://www.esmadrid.com/restaurantes/el-economico-soidemersol,restaurantes
68741,La Chula de Chamber&iacute;,40.428245600000,-3.693140500000,(+34) 91 308 55 49,lachuladechamberi@gmail.com,"de Fernando El Santo, 11",http://www.esmadrid.com/restaurantes/la-chula-de-chamberi,restaurantes
68806,Taberna Dehesa Santa Mar&iacute;a,40.415115491149,-3.713445961475,(+34) 91 752 47 40,,"Mayor, 88",http://www.esmadrid.com/restaurantes/taberna-santa-maria,restaurantes
69097,Sagardi (Euskal Etxea),40.417292383813,-3.696470260620,(+34) 91 531 25 64,info@gruposagardi.com,"de Jovellanos, 3",http://www.esmadrid.com/restaurantes/sagardi-euskal-etxea,restaurantes
68803,Le Petit Prince,40.424347400000,-3.674138800000,(+34) 91 431 44 14,principito.restaurante@gmail.com,"Fernán González, 7",http://www.esmadrid.com/restaurantes/le-petit-prince,restaurantes
69062,Gourmet Bar,40.462530000000,-3.614435000000,(+34) 91 721 18 18,h1636-fb@accor.com,"Amsterdam, 3",http://www.esmadrid.com/restaurantes/gourmet-bar,restaurantes
69061,Trattoria Pinocchio (S&aacute;nchez Bustillo),40.409023493198,-3.693621754646,(+34) 91 468 73 73 ,atencioncliente@pinocchio.es,"Sánchez Bustillo, 5",http://www.esmadrid.com/restaurantes/trattoria-pinocchio-sanchez-bustillo,restaurantes
68804,El rey de tallarines,40.424618968456,-3.709548711777,(+34) 91 542 68 97,,"de San Bernardino, 2",http://www.esmadrid.com/restaurantes/el-rey-de-tallarines,restaurantes
68805,La Plaza,40.452427000000,-3.585118000000,(+34) 91 153 40 00,info.madridairport@hilton.com,"de la Hispanidad, 2-4",http://www.esmadrid.com/restaurantes/la-plaza,restaurantes
69191,Naif,40.424375986943,-3.701893687248,(+34) 91 007 20 71,,"de San Joaquín , 16",http://www.esmadrid.com/restaurantes/naif,restaurantes
69055,Lakasa,40.440931433480,-3.700740337372,(+34) 91 533 87 15 ,lakasa@lakasa.es,"del Descubridor Diego de Ordás, 1",http://www.esmadrid.com/restaurantes/lakasa,restaurantes
69058,Couzap&iacute;n,40.419464100000,-3.675179900000,(+34) 91 400 93 55 ,info@restaurantecouzapin.com,"Menorca, 33",http://www.esmadrid.com/restaurantes/couzapin,restaurantes
69056,Pulper&iacute;a Vilal&uacute;a ,40.427178800000,-3.673489500000,(+34) 91 277 28 06 ,pulperia@vilalua.net,"de Ayala, 87",http://www.esmadrid.com/restaurantes/pulperia-vilalua,restaurantes
69034,Ca&ntilde;ad&iacute;o,40.433249100000,-3.674787200000,(+34) 91 281 91 92,,"del Conde de Peñalver, 86",http://www.esmadrid.com/restaurantes/canadio,restaurantes
69027,Sagar,40.435819400000,-3.672410600000,(+34) 91 713 11 55,sagar@restaurantesagar.com,"Alonso Heredia, 22",http://www.esmadrid.com/restaurantes/sagar,restaurantes
69005,Han Gang,40.410699100000,-3.696058100000,(+34) 91 528 12 01,,"Atocha, 94",http://www.esmadrid.com/restaurantes/han-gang,restaurantes
69104,Dimibang,40.431763049357,-3.715980648994,(+34) 91 544 62 13,contacto@dimibang.es,"de Rodríguez San Pedro, 67",http://www.esmadrid.com/restaurantes/dimibang,restaurantes
69102,Korea,40.442952200000,-3.695698800000,(+34) 91 554 20 34,,"Cristóbal Bordiú, 59",http://www.esmadrid.com/restaurantes/korea,restaurantes
69106,Seoul,40.411041286085,-3.717960119247,(+34) 91 365 00 87,restauranteseoul@gmail.com,"de Segovia, 25",http://www.esmadrid.com/restaurantes/seoul,restaurantes
68601,Dionisos ,40.422801500000,-3.699799600000,(+34) 91 522 51 83,reservas@diosiosrestaurants.com,"de Augusto Figueroa, 8",http://www.esmadrid.com/restaurantes/dionisos,restaurantes
68394,Garc&iacute;a de la Navarra,40.418299121798,-3.691191673279,(+34) 91 523 36 47 ,info@garciadelanavarra.com,"de Montalbán, 3",http://www.esmadrid.com/restaurantes/garcia-de-la-navarra,restaurantes
68470,M&eacute;rim&eacute;e,40.424356200000,-3.700777300000,(+34) 91 116 67 02,info@merimeegastrobar.com,"de Fuencarral, 61",http://www.esmadrid.com/restaurantes/merimee,restaurantes
68597,Surtop&iacute;a,40.435359500000,-3.681850300000,(+34) 91 563 03 64,info@surtopia.es,"de Núñez de Balboa, 106",http://www.esmadrid.com/restaurantes/surtopia,restaurantes
69074,La Botiller&iacute;a,40.418024600000,-3.711389500000,(+34) 91 548 46 20,reservas@grupolezama.es,"de Oriente, 4",http://www.esmadrid.com/restaurantes/la-botilleria-del-cafe-de-oriente,restaurantes
68722,Cafeter&iacute;a-restaurante Colecci&oacute;n Cibeles,40.419527403421,-3.693240880966,(+34) 91 523 15 70,palaciodecibeles1@adolfo-toledo.com,"de Cibeles, 1, 2º planta",http://www.esmadrid.com/restaurantes/cafeteria-restaurante-coleccion-cibeles,restaurantes
68481,Restaurante Palacio de Cibeles,40.418934196227,-3.692151904106,(+34) 91 523 14 54,recepcioncibeles@adolfo-toledo.com,"de Cibeles, 1",http://www.esmadrid.com/restaurantes/restaurante-palacio-de-cibeles,restaurantes
68740,La Sure&ntilde;a,40.422931100000,-3.710436600000,,,"de Postas, 12",http://www.esmadrid.com/restaurantes/la-surena,restaurantes
69072,La Casa del Pulpo,40.387160700000,-3.700416700000,(+34) 91 476 00 48,barlosgallegos@gmail.com,"Almendrales, 17",http://www.esmadrid.com/restaurantes/la-casa-del-pulpo,restaurantes
68749,Minotauro ,40.462540700000,-3.637903900000,(+34) 91 388 94 45,info@restauranteminotauro.es,"de Silvano, 92",http://www.esmadrid.com/restaurantes/minotauro,restaurantes
68690,La Pulperia de Mila,40.422085400000,-3.685863000000,(+34) 91 576 00 85,lapulperiademila@grupo-oter.com,"de Lagasca, 11",http://www.esmadrid.com/restaurantes/la-pulperia-de-mila,restaurantes
68974,Los Remos,40.468014700000,-3.812944300000,(+34) 91 307 72 30,info@losremos.es,"Sopelana, 13 ",http://www.esmadrid.com/restaurantes/remos,restaurantes
68979,El Buey ,40.420644400000,-3.711294000000,(+34) 91 541 30 41,info@restauranteelbuey.com,"de la Marina Española, 1",http://www.esmadrid.com/restaurantes/el-buey-pza-marina-espanola,restaurantes
69002,Trattoria SantArcangelo,40.413291829854,-3.690215349197,(+34) 91 369 10 93,info@trattoriasantarcangelo.es,"Moreto, 15",http://www.esmadrid.com/restaurantes/trattoria-santarcangelo,restaurantes
69054,Bar Amor,40.428865898533,-3.704720735550,(+34) 91 594 48 29,info@baramor.es,"de Manuela Malasaña, 22",http://www.esmadrid.com/restaurantes/bar-amor,restaurantes
69165,El Puerto de Cabreira,40.426791100000,-3.703218500000,(+34) 91 445 18 95,elpuertodecabreira@cabreira.es,"Velarde, 13",http://www.esmadrid.com/restaurantes/el-puerto-de-cabreira,restaurantes
68535,100 Montaditos,40.422579100000,-3.709857200000,(+34) 91 548 36 43,,"Gran Vía , 63",http://www.esmadrid.com/restaurantes/100-montaditos,restaurantes
68408,Yu&egrave; L&aacute;i (Joya Oriental),40.425989041065,-3.674513697624,(+34) 91 575 71 54,,"de Hermosilla, 101",http://www.esmadrid.com/restaurantes/yue-lai-joya-oriental,restaurantes
69053,Gumbo,40.423648000000,-3.705303400000,(+34) 91 532 63 61,gumborest@yahoo.es,"del Pez, 15",http://www.esmadrid.com/restaurantes/gumbo,restaurantes
69020,Luzi Bomb&oacute;n,40.433870400000,-3.689240300000,(+34) 91 702 27 36,reservas.luzi@grupotragaluz.com,"de la Castellana, 35",http://www.esmadrid.com/restaurantes/luzi-bombon,restaurantes
69052,Soma ,40.424923204575,-3.678145408630,(+34) 91 436 45 48 ,,"de Goya, 79",http://www.esmadrid.com/restaurantes/soma,restaurantes
