ID,Name,Latitude,Longitude,Phone,Email,Address,Web,Categoria
98186,Peque Story,40.417100900000,-3.709451300000,(+34) 616 667 531,pequestory@gmail.com,"de la Escalinata, 7",http://www.esmadrid.com/informacion-turistica/peque-story,turismo
98163,Cementerio de la Florida,40.427155400000,-3.723273200000,,,"de Francisco y Jacinto Alcántara, 1",http://www.esmadrid.com/informacion-turistica/cementerio-florida,turismo
98152,Pabell&oacute;n de los Hex&aacute;gonos,40.412888649450,-3.740765593112,,,"de Portugal, s/n",http://www.esmadrid.com/informacion-turistica/pabellon-hexagonos,turismo
98144,Cementerio Sacramental de San Justo,40.405138867324,-3.724890947342,(+34) 91 569 56 31,correo@sacramentaldesanjusto.com,"de la Ermita del Santo, 70",http://www.esmadrid.com/informacion-turistica/cementerio-sacramental-san-justo,turismo
98067,Gorila Arte,40.438325000000,-3.716657500000,,gorilaarte1@gmail.com,"de Hilarión Eslava, 49",http://www.esmadrid.com/informacion-turistica/gorila-arte,turismo
98040,Multiespacio La Strada,40.435389600000,-3.705932800000,(+34) 91 446 48 49,multiespaciolastrada@hotmail.com,"de Magallanes, 23",http://www.esmadrid.com/informacion-turistica/multiespacio-strada,turismo
97999,Palacio de Maudes,40.445421200000,-3.701263100000,,,"de Maudes, 17",http://www.esmadrid.com/informacion-turistica/palacio-maudes,turismo
97980,Grada M&aacute;gica,40.398685500000,-3.666163000000,(+34) 910 231 013,info@gradamagica.com,"Emilio Ortuño, 20",http://www.esmadrid.com/informacion-turistica/grada-magica,turismo
97970,The Set Lab,40.479832200000,-3.707023000000,(+34) 912 625 004,info@thesetlab.com,"de Monforte de Lemos, 36",http://www.esmadrid.com/informacion-turistica/set-lab,turismo
97832,Espacio Garaje Lola,40.468243000000,-3.706131000000,(+34) 667 01 11 14,info@espaciogarajelola.com,"Sorgo, 53",http://www.esmadrid.com/informacion-turistica/espacio-garaje-lola,turismo
97829,Escuela de Chocolate de Madrid,40.447141500000,-3.670275800000,(+34) 653 59 26 31,helen@escuelachocolate.com,"de López de Hoyos, 133 posterior",http://www.esmadrid.com/informacion-turistica/escuela-chocolate-madrid,turismo
97819,Galer&iacute;a Jos&eacute; de la Mano,40.416989100000,-3.696006800000,(+34) 91 435 01 74,info@josedelamano.com,"de Zorrilla, 21",http://www.esmadrid.com/informacion-turistica/galeria-jose-mano,turismo
97770,Parque Caleido,40.478555219208,-3.689908368541,,,de Pedro Rico s/n,http://www.esmadrid.com/informacion-turistica/parque-caleido,turismo
97713,Galer&iacute;a Azur Madrid,40.422433800000,-3.696518300000,(+34) 914 445 461,info@galeriaazur.es,"Válgame Dios, 6",http://www.esmadrid.com/informacion-turistica/galeria-azur-madrid,turismo
97709,TU TUK TUK,40.416930500000,-3.702087700000,(+34) 608 53 17 91,tutuktukmadrid@gmail.com,-,http://www.esmadrid.com/informacion-turistica/tu-tuk-tuk,turismo
97702,600 Tour Madrid,40.416930500000,-3.702087700000,(+34) 625 014 196,contacto@600tourmadrid.com,-,http://www.esmadrid.com/informacion-turistica/600-tour-madrid,turismo
97618,Iglesia de Santa Teresa de Jes&uacute;s y San Jos&eacute; ,40.422501000000,-3.714932700000,,,"de España, 14",http://www.esmadrid.com/informacion-turistica/iglesia-santa-teresa-jesus-san-jose,turismo
97562,Templete de la estaci&oacute;n de metro de Gran V&iacute;a,40.419863557998,-3.701497360206,,,"de Gran Vía,  21 ",http://www.esmadrid.com/informacion-turistica/templete-estacion-metro-gran-via,turismo
97511,Santuario de Nuestra Se&ntilde;ora de Valverde,40.515887210230,-3.686020374298,,hermandadvalverde@gmail.com,"M - 607, Km 12,300",http://www.esmadrid.com/informacion-turistica/santuario-senora-valverde,turismo
97115,La noria de agua de El Retiro,40.408954053904,-3.683799505234,,,"de Alfonso XII, 54",http://www.esmadrid.com/informacion-turistica/noria-agua-retiro,turismo
97081,Iglesia Parroquial de San Mat&iacute;as,40.472779347348,-3.640556931496,(+34) 91 764 59 49 ,parroquia@cristosalvador.es,"Iglesia, 2",http://www.esmadrid.com/informacion-turistica/iglesia-parroquial-san-matias,turismo
97029,Area Coworking &amp; Events,40.396871700000,-3.691698800000,(+34) 690 744 703,contact@areamadrid.es,"de Tomás Bretón, 50",http://www.esmadrid.com/informacion-turistica/area-coworking-events,turismo
96989,Habitaci&oacute;n N&uacute;mero  34,40.378481400000,-3.712587700000,,info@habitacionnumero.org,"Cerro de los Ángeles, 34",http://www.esmadrid.com/informacion-turistica/habitacion-numero-34,turismo
96967,Mirador de la Cornisa del Palacio Real,40.416516200368,-3.715363450575,,,de la Armería,http://www.esmadrid.com/informacion-turistica/mirador-cornisa-palacio-real,turismo
96911,Auditorio al aire libre del parque forestal de Entrev&iacute;as,40.373130169923,-3.672008514404,,,del Sur ,http://www.esmadrid.com/informacion-turistica/auditorio-aire-libre-parque-forestal-entrevias,turismo
96826,Finca de Vista Alegre,40.383774800000,-3.739482300000,,,"del General Ricardos, 179",http://www.esmadrid.com/informacion-turistica/finca-vista-alegre,turismo
96822, SIXT ,40.458159900000,-3.581590100000,(+34) 871 18 01 92,españa@sixt.com,"de la Hispanidad, s/n",http://www.esmadrid.com/informacion-turistica/sixt,turismo
96805,DOMO 360,40.440904895762,-3.727186918259,(+34) 647 777 649,eventos@domo360.es,"Puerta de Hierro, 2",http://www.esmadrid.com/informacion-turistica/domo-360,turismo
96715,Exl&iacute;mite,40.380138700000,-3.708690800000,,exlimite@exlimite.com,"Primitiva Gañán, 12",http://www.esmadrid.com/informacion-turistica/exlimite,turismo
96709,Vel&aacute;zquez Tech Museum,40.414445700000,-3.704590900000,,info@velazqueztech.com,"de  Atocha, 12",http://www.esmadrid.com/informacion-turistica/velazquez-tech-museum,turismo
96681,Wonder Tours,40.415575800000,-3.709187800000,+34 670 31 22 87,info@wonder.tours,"de San MIguel, 2",http://www.esmadrid.com/informacion-turistica/wonder-tours,turismo
96469,Las letras de Madrid R&iacute;o,40.417639029608,-3.722580947651,,,"de Portugal, 1 ",http://www.esmadrid.com/informacion-turistica/letras-madrid-rio,turismo
96319,Cementerio Brit&aacute;nico,40.395217000000,-3.722585800000,,britishcemeterymadrid@fco.gov.uk,"Comandante Fontanes, 7",http://www.esmadrid.com/informacion-turistica/cementerio-britanico,turismo
96243,Mural &ldquo;La uni&oacute;n hace la fuerza&rdquo; (Barrio de la Concepci&oacute;n),40.437249700000,-3.648440700000,,,"de José del Hierro, 5",http://www.esmadrid.com/informacion-turistica/mural-union-hace-fuerza-barrio-concepcion,turismo
96187,Capilla del Hospital de la Venerable Orden Tercera,40.409058100000,-3.713925600000,,,"de San Bernabé, 13",http://www.esmadrid.com/informacion-turistica/capilla-hospital-venerable-orden-tercera,turismo
96155,Ministerio de Hacienda (Real Casa de la Aduana),40.419337000000,-3.693085300000,,,"de Alcalá, 3 - 9",http://www.esmadrid.com/informacion-turistica/ministerio-hacienda-real-casa-aduana,turismo
96097,Torre Caleido,40.477484333582,-3.689292669296,,,"de la Castellana,  259",http://www.esmadrid.com/informacion-turistica/torre-caleido,turismo
95916,Sala de Exposiciones del Banco de Espa&ntilde;a,40.418625848941,-3.694410324097,(+34) 91 338 50 00,,"de Alcalá,  48",http://www.esmadrid.com/informacion-turistica/sala-exposiciones-banco-espana,turismo
95911,Museo de las Colecciones Reales,40.416684880488,-3.715954418070,,,"de Bailén, 8",http://www.esmadrid.com/informacion-turistica/museo-colecciones-reales,turismo
95751,Parque de Bravo Murillo,40.440174083724,-3.703969717026,,,"de Bravo Murillo, 42",http://www.esmadrid.com/informacion-turistica/parque-bravo-murillo,turismo
95749,El Cerro de los Locos,40.454425526356,-3.724021911621,,,"de la Dehesa de la Villa, 1",http://www.esmadrid.com/informacion-turistica/cerro-locos-dehesa-de-la-villa,turismo
95693,Espacio Raro (IFEMA - Feria de Madrid),40.466812300000,-3.622611400000,(+34) 91 990 86 75,hola@espacioraro.es,"de la Ribera del Sena, 7",http://www.esmadrid.com/informacion-turistica/espacio-raro-ifema-feria-madrid,turismo
95613,Galer&iacute;a Aural,40.424587400000,-3.697062900000,(+34) 912 595 508  ,info@auralgaleria.com,"de Pelayo, 68",http://www.esmadrid.com/informacion-turistica/galeria-aural,turismo
95495,Oficina de Objetos Perdidos del Ayuntamiento de Madrid,40.390604000000,-3.693666700000,010/(+34)915 298 210,objetosperdidos@madrid.es,"del Molino, 7",http://www.esmadrid.com/informacion-turistica/oficina-objetos-perdidos-ayuntamiento-madrid,turismo
95464,Virtual Arena,40.396871700000,-3.691698800000,(+34) 91 514 16 33,info@virtualarena.games,"de Tomás Bretón, 52",http://www.esmadrid.com/informacion-turistica/virtual-arena,turismo
95454,Consignas Estaci&oacute;n de M&eacute;ndez &Aacute;lvaro,40.395128100000,-3.678535200000,(+34) 91 468 42 00,info@estaciondeautobuses.com,"de Méndez Álvaro, 83",http://www.esmadrid.com/informacion-turistica/consignas-estacion-mendez-alvaro,turismo
95451,Consignas Estaci&oacute;n de Madrid - Chamart&iacute;n - Clara Campoamor,40.472274647761,-3.681621106965,(+34) 912 432 343,,"de Agustín de Foxa, s/n",http://www.esmadrid.com/informacion-turistica/consignas-estacion-madrid-chamartin-clara-campoamor,turismo
95445,Consignas Estaci&oacute;n de Atocha,40.407236499487,-3.691395354684,(+34) 912 432 343,,"del Emperador Carlos V, s/n",http://www.esmadrid.com/informacion-turistica/consignas-estacion-atocha,turismo
95442,Consignas Aeropuerto Adolfo Su&aacute;rez Madrid &ndash; Barajas,40.498397739922,-3.567638397217,(+34) 91 321 10 00,clientesmad@aena.es,"de la HIspanidad, s /n",http://www.esmadrid.com/informacion-turistica/consignas-aeropuerto-adolfo-suarez-madrid-barajas,turismo
95415,Sweet Space Museum,40.432248958133,-3.687264919281,,hello@sweetspace.com,"de Serrano, 61",http://www.esmadrid.com/informacion-turistica/sweet-space-museum,turismo
95308,Sensorytur,40.420743900000,-3.702671200000,(+34) 687 30 72 10,info@sensorytur.com,"del Desengaño, 6",http://www.esmadrid.com/informacion-turistica/sensorytur,turismo
95306,IKONO,40.408994000000,-3.693446600000,,hola@ikonomadrid.com,"de Sánchez Bustillo, 7",http://www.esmadrid.com/informacion-turistica/ikono,turismo
95123,Fuente de San Isidro,40.400619000000,-3.725722100000,(+34) 91 365 08 41,info@cementeriodesanisidro.com,"de la Ermita del Santo, 72",http://www.esmadrid.com/informacion-turistica/fuente-san-isidro,turismo
95122,Capilla de San Isidro,40.410009800000,-3.711961100000,(+34) 913650841,info@cementeriodesanisidro.com,"del Águila, 1",http://www.esmadrid.com/informacion-turistica/capilla-san-isidro,turismo
95107,Madrid Discovery,40.428052100000,-3.714754300000,+ 34 66 70 34 919,info@madrid-discovery.com,"de la Princesa, 31,",http://www.esmadrid.com/informacion-turistica/madrid-discovery,turismo
95106,Grand Tour Classic,40.441173000000,-3.679715400000,+34 722 864 566,info@grandtourclassic.com,"Calle de López de Hoyos, 35, 1º, ",http://www.esmadrid.com/informacion-turistica/grand-tour-classic,turismo
95096,Punto de Informaci&oacute;n Tur&iacute;stica Cuesta de Moyano ,40.409714284574,-3.690725480600,,turismo@esmadrid.com,"de Moyano, Caseta nº 1",http://www.esmadrid.com/informacion-turistica/punto-informacion-turistica-cuesta-moyano,turismo
95095,Eco Tuk Tuk,40.415582800000,-3.708780300000,+34 680 54 87,hello@ecotuktuk.com,de San MIguel,http://www.esmadrid.com/informacion-turistica/eco-tuk-tuk,turismo
95015,Autocine Madrid Race Circuito del Jarama,40.616949512003,-3.585319519043,(+34) 91 729 49 66,info@autocinesmadrid.es,"A1, km 28",http://www.esmadrid.com/informacion-turistica/autocine-madrid-race-circuito-jarama,turismo
94897,Cines Embajadores,40.400682096095,-3.698589205742,(+34) 91 485 87 98,cinesembajadores@gmail.com,"de Santa María de la Cabeza, 5",http://www.esmadrid.com/informacion-turistica/cines-embajadores,turismo
94855,Museum of Illusions Madrid,40.413466700000,-3.703890100000,,madridinfo@museumofillusions.es,"del Doctor Cortezo, 8",http://www.esmadrid.com/informacion-turistica/museum-illusions-madrid,turismo
94734,Monumento en recuerdo de las v&iacute;ctimas de la pandemia del Covid - 19,40.419224178048,-3.693862318973,,,"de Alcalá, 48",http://www.esmadrid.com/informacion-turistica/monumento-recuerdo-victimas-pandemia-covid-19,turismo
94690,Centro Emisor de Onda Corta de RNE (Arganda del Rey),40.313075932727,-3.509745597839,,,"Viejo de Chinchón, Arganda del Rey",http://www.esmadrid.com/informacion-turistica/centro-emisor-onda-corta-rne-arganda-rey,turismo
94642,Palacio de la M&uacute;sica,40.420052200000,-3.704641100000,,,"Gran Via, 35",http://www.esmadrid.com/informacion-turistica/palacio-musica,turismo
94247,Iglesia de Santa Mar&iacute;a la Blanca,40.445142632416,-3.611299395561,(+34) 91 741 03 55,contacto@parroquialablanca.es,"de la Villa de Canillejas, 1",http://www.esmadrid.com/informacion-turistica/iglesia-santa-maria-blanca,turismo
94229,Caf&eacute; Naves,40.392226000000,-3.697704200000,(+34) 91 136 46 31,info@navesmatadero.es,"de la Chopera, 14",http://www.esmadrid.com/informacion-turistica/cafe-naves,turismo
94122,Villa Sotera,40.440606500000,-3.638247800000,,,"Vizconde de los Asilos, 5",http://www.esmadrid.com/informacion-turistica/villa-sotera,turismo
94102,Nuestra Se&ntilde;ora de la Concepci&oacute;n,40.438545700000,-3.638911100000,(+34) 91 367 40 16,concepcionpn@archimadrid.es,"de Arturo Soria, 5",http://www.esmadrid.com/informacion-turistica/iglesia-nuestra-senora-concepcion,turismo
94100,Edificio Cava de San Miguel 11,40.415261400000,-3.708301400000,,,"Cava de San Miguel, 11",http://www.esmadrid.com/informacion-turistica/edificio-cava-san-miguel-11,turismo
94090,Edificio del Marqu&eacute;s Viudo de Pontejos 1,40.415662700000,-3.704443500000,,,"del Marqués Viudo de Pontejos, 1",http://www.esmadrid.com/informacion-turistica/edificio-marques-viudo-pontejos-1,turismo
94088,Edificio Montano,40.424936500000,-3.710031300000,,,"de San Bernardino, 3",http://www.esmadrid.com/informacion-turistica/edificio-montano,turismo
94081,Edificio Gran Via 34,40.420464700000,-3.704030000000,,,"Gran Vía, 34",http://www.esmadrid.com/informacion-turistica/edificio-gran-34,turismo
94039,Palacio de la Duquesa de Sueca,40.411792300000,-3.706801800000,,,"del Duque de Alba, 2",http://www.esmadrid.com/informacion-turistica/palacio-duquesa-sueca,turismo
94029,Furiosa Gallery,40.411210800000,-3.694378000000,(+34) 661 69 25 22,info@furiosagallery.com,"de Almadén, 13",http://www.esmadrid.com/informacion-turistica/furiosa-gallery,turismo
94026,Viaje de Agua de Amaniel,40.450812100000,-3.712702100000,(+34) 91 480 21 41,infodehesa@madrid.es,"de Juan XXIII, 23",http://www.esmadrid.com/informacion-turistica/viaje-agua-amaniel,turismo
93958,Monumento a los H&eacute;roes de Baler,40.430810552533,-3.707265229597,,,"del Conde del Valle de Súchil, s/n",http://www.esmadrid.com/informacion-turistica/monumento-heroes-baler,turismo
93888,Espacio Gallinero,40.391310400000,-3.744147500000,,info@teatrolabmadrid.com,"Luis Feito, 24 Local",http://www.esmadrid.com/informacion-turistica/espacio-gallinero,turismo
93654,Spain Top,40.429403100000,-3.665680200000,(+34) 910 820 002,info@spaintop.com,"de Alcalá, 180,  bajo D",http://www.esmadrid.com/informacion-turistica/spain-top,turismo
93500,Farolero madrile&ntilde;o,40.413897200000,-3.705472200000,,,"de Concepción Jerónima, 15",http://www.esmadrid.com/informacion-turistica/farolero-madrileno,turismo
93195,Punto de Informaci&oacute;n Tur&iacute;stica Palacio Real,40.417224995134,-3.713067770004,,turismo@esmadrid.com,"de Bailén, esquina con Calle Requena",http://www.esmadrid.com/informacion-turistica/punto-informacion-turistica-palacio-real,turismo
93077,archiTOURSMAD,40.412255200000,-3.703833000000,(+34) 619 93 20 29,Info@architoursmad.es,"de Tirso de Molina, 4",http://www.esmadrid.com/informacion-turistica/architoursmad,turismo
93005,Poko Espacio,40.417284000000,-3.703415500000,,,"Puerta del Sol, 12",http://www.esmadrid.com/informacion-turistica/poko-espacio,turismo
92946,mk2 Institut fran&ccedil;ais de Madrid,40.424558700000,-3.692346700000,(+34) 91 700 48 00,,"del Marqués de la Ensenada, 10",http://www.esmadrid.com/informacion-turistica/mk2-institut-francais-madrid,turismo
92943,Puerta Real del Jard&iacute;n Bot&aacute;nico,40.410559720836,-3.692263363694,,,"del Prado, 11",http://www.esmadrid.com/informacion-turistica/puerta-real-jardin-botanico,turismo
92938,Puerta de Felipe IV,40.415309494761,-3.688681125641,,,"de Alfonso XII, s/n",http://www.esmadrid.com/informacion-turistica/puerta-felipe-iv,turismo
92899,Fundaci&oacute;n Mar&iacute;a Cristina Masaveu Peterson ,40.426676300000,-3.691599200000,(+34) 91 990 39 03,infomadrid@fmcmp.com,"Alcalá Galiano, 6",http://www.esmadrid.com/informacion-turistica/fundacion-maria-cristina-masaveu-peterson,turismo
92850,Cine Yelmo Luxury Palafox,40.430144900000,-3.700898300000,(+34) 902 22 09 22,,"de Luchana, 15",http://www.esmadrid.com/informacion-turistica/cine-yelmo-luxury-palafox,turismo
92806,Sala Azca,40.451372191770,-3.692715167999,(+34) 91 581 15 25,info@modashopping.com,"del General Perón, 40",http://www.esmadrid.com/informacion-turistica/sala-azca,turismo
92769,Espacio 5.1 (IFEMA MADRID),40.467241486735,-3.619587421417,(+34) 91 999 16 86,info@espacio5punto1.es,"del Partenón,  5",http://www.esmadrid.com/informacion-turistica/espacio-51-ifema-madrid,turismo
92675,Soho Club Teatro,40.422560300000,-3.711840000000,(+34) 615 519 427,info@teatrosohoclub.com,"de España, 6",http://www.esmadrid.com/informacion-turistica/soho-club-teatro,turismo
92450,Espacio Ibercaja Delicias,40.397883697556,-3.688788414002,(+34) 91 521 69 11,info@letsgocompany.com,"de las Delicias, 61",http://www.esmadrid.com/informacion-turistica/espacio-ibercaja-delicias,turismo
92443,The Ryder,40.406572600000,-3.701311100000,(+34) 669 33  65 50,info@theryderprojects.com,"de Miguel Servet, 13",http://www.esmadrid.com/informacion-turistica/ryder,turismo
92418,Vintage City Tours,40.488229000000,-3.723941900000,(+34) 91 827 10 50,info@vintagecitytours.com,"Valle de Enmedio, 111",http://www.esmadrid.com/informacion-turistica/vintage-city-tours,turismo
92306,Ciudad del Arte. Museo Zapadores,40.495540100000,-3.681767800000,(+34) 91 528 33 49 ,info@arthousemadrid.es,"Antonio de Cabezón, 70",http://www.esmadrid.com/informacion-turistica/ciudad-arte-museo-zapadores,turismo
92267,Palacio del Infante Don Luis,40.406952537591,-3.874225616455,(+34) 91 602 42 00,turismo@aytoboadilla.com,"de Adolfo Suárez, 27",http://www.esmadrid.com/informacion-turistica/palacio-infante-don-luis,turismo
92265,Tras Julia,40.424364200000,-3.707232600000,,,"del Pez, 42",http://www.esmadrid.com/informacion-turistica/julia,turismo
92252,El Vecino Curioso,40.415239032957,-3.712980746167,,,de la Almudena,http://www.esmadrid.com/informacion-turistica/vecino-curioso,turismo
92251,La abuela roquera,40.395236200000,-3.666400000000,,,"de Peña Gorbea, 22",http://www.esmadrid.com/informacion-turistica/abuela-roquera,turismo
92250,La Sirena Varada,40.433024771589,-3.687694072723,,,"de la Castellana, 40",http://www.esmadrid.com/informacion-turistica/sirena-varada,turismo
92248,Al Libro,40.423695388890,-3.690956601628,,,"de Recoletos, 20",http://www.esmadrid.com/informacion-turistica/libro,turismo
92244,El D&iacute;a y la Noche,40.406246076495,-3.688548722765,,,"de la Ciudad de Barcelona, 3",http://www.esmadrid.com/informacion-turistica/dia-noche,turismo
92243,Barrendero madrile&ntilde;o 1960,40.414330100000,-3.703286800000,,,"de Jacinto Benavente, s/n",http://www.esmadrid.com/informacion-turistica/barrendero-madrileno-1960,turismo
92193,Iglesia de San Ant&oacute;n,40.424283000000,-3.698549300000,(+34) 91 521 57 81,iglesiasananton@mensajerosdelapaz.com,"de Hortaleza, 63",http://www.esmadrid.com/informacion-turistica/iglesia-san-anton,turismo
92147,Puy du Fou Espa&ntilde;a,39.840539602487,-4.086956977844,(+34) 925 63 01 35,,"CM 40, Toledo",http://www.esmadrid.com/informacion-turistica/puy-du-fou-espana,turismo
92011,Espacios Fiestas del Orgullo LGTBIQA+,40.422598600000,-3.697798700000,,,de Chueca,http://www.esmadrid.com/informacion-turistica/espacios-fiestas-orgullo-lgtbiqa,turismo
91801,Parque Warner Beach,40.229857092258,-3.589342832565,(+34) 91 200 07 92,atencionalcliente@parquewarner.com,"A 4, salida 22",http://www.esmadrid.com/informacion-turistica/parque-warner-beach,turismo
91693,Centro de Estudios Hidrogr&aacute;ficos del CEDEX,40.412505300000,-3.722345900000,(+34) 91 335 79 44 ,visitasceh@cedex.es,"Bajo de la Virgen del Puerto, 3",http://www.esmadrid.com/informacion-turistica/centro-estudios-hidrograficos-cedex,turismo
91499,A Punto,40.422844500000,-3.699030000000,(+34) 91 702 10 41,info@apuntolibreria.com,"de la Farmacia, 6",http://www.esmadrid.com/informacion-turistica/a-punto,turismo
91465,Catedral Ortodoxa Rusa de Santa Mar&iacute;a Magdalena,40.467045592368,-3.651269674301,(+34) 686 29 18 01 ,padrekordochkin@orthodoxmadrid.com,"de la Gran Vía de Hortaleza, 48",http://www.esmadrid.com/informacion-turistica/catedral-ortodoxa-rusa-santa-maria-magdalena,turismo
91393,Histohuellas,40.416775400000,-3.703790200000,(+34) 665 63 17 74,info@histohuellas.es,Mayor,http://www.esmadrid.com/informacion-turistica/histohuellas,turismo
91388,Centro Cultural Flamenco de Madrid,40.422670000000,-3.694062400000,(+34)91 137 34 08,culturalflamenco@gmail.com,"del Conde de Xiquena, 6",http://www.esmadrid.com/informacion-turistica/centro-cultural-flamenco-madrid,turismo
91366,Mirador Payaso Fof&oacute;,40.385711300000,-3.658828200000,,,"Puerto de Costabona, 5",http://www.esmadrid.com/informacion-turistica/mirador-payaso-fofo,turismo
91361,Torre de San Jos&eacute;,40.384323094592,-3.657991290093,,,"Puerto del Milagro, 6",http://www.esmadrid.com/informacion-turistica/torre-san-jose,turismo
91215,Nattivus,40.416775400000,-3.703790200000,, info@nattivus.com,--,http://www.esmadrid.com/informacion-turistica/nattivus,turismo
91210,Cool Tour Spain,40.475835900000,-3.657376500000,(+34) 638 399 784,info@cooltourspain.com,"de Carrión de los Condes, 77",http://www.esmadrid.com/informacion-turistica/cool-tour-spain,turismo
91156,Madrid Culture Tour,40.408775500000,-3.695309500000,(+34) 607 01 75 94,info@madridculturetour.com,"del Hospital, 2",http://www.esmadrid.com/informacion-turistica/madrid-culture-tour,turismo
91146,CSA La Tabacalera de Lavapi&eacute;s,40.406176423414,-3.702977299690,,com@latabacalera.net,"de Embajadores, 53",http://www.esmadrid.com/informacion-turistica/csa-tabacalera-lavapies,turismo
91068,Teatro Municipal de Vallecas,40.377623500000,-3.622909500000,(+34) 91 380 66 33,bpgerardodiego@madrid.es,"Paso de Villamanrique, 3",http://www.esmadrid.com/informacion-turistica/teatro-municipal-vallecas,turismo
91046,Galer&iacute;a Montsequi,40.440972300000,-3.697469000000,(+34) 915 35 85 93,galeriadearte@montsequi.com,"de Alonso Cano, 42",http://www.esmadrid.com/informacion-turistica/galeria-montsequi,turismo
90842,Edificio Castellana 81 (Torre BBVA),40.447655900000,-3.692039700000,,info@castellana81.com,"de la Castellana, 81",http://www.esmadrid.com/informacion-turistica/edificio-castellana-81-torre-bbva,turismo
90781,La Matritense,40.432520493861,-3.701577186585,(+34) 91 522 53 07,info@vinomatritense.com,"de Olavide, 4",http://www.esmadrid.com/informacion-turistica/matritense,turismo
90231,Atlantis Aquarium Madrid,40.299526904727,-3.923664093018,(+34) 91 078 00 81,info.atlantis@atlantisaquarium-madrid.es,"Puerto de Navacerrada, ",http://www.esmadrid.com/informacion-turistica/atlantis-aquarium-madrid,turismo
90108,Edificio LaMarca,40.424855900000,-3.695983300000,,,"de Fernando VI, 10",http://www.esmadrid.com/informacion-turistica/edificio-lamarca,turismo
90022,Sal&oacute;n de Baile del Teatro Real,40.418299121798,-3.710578680039,(+34) 91 516 06 60,info@teatroreal.es,"de Isabel II, s/n",http://www.esmadrid.com/informacion-turistica/salon-baile-teatro-real,turismo
89811,Espacio SOLO,40.420626700000,-3.688245800000,(+34) 910 53 42 07,info@coleccionsolo.com,"de la Independencia, 5",http://www.esmadrid.com/informacion-turistica/espacio-solo,turismo
89751,Parque de las Cataratas (Parque Vallecas Villa),40.371863237651,-3.624436855316,,,"Babilafuente, 2",http://www.esmadrid.com/informacion-turistica/parque-cataratas-parque-vallecas-villa,turismo
89739,Spaces Retiro,40.408478600000,-3.689027700000,(+34) 914 14 44 59,reception.retiro@spacesworks.com,"de Alfonso XII, 62",http://www.esmadrid.com/informacion-turistica/spaces-retiro,turismo
89666,Casa de M&eacute;xico,40.430110300000,-3.709548700000,,,"de Alberto Aguilera, 20",http://www.esmadrid.com/informacion-turistica/casa-mexico,turismo
89613,Palacio de la Moncloa,40.445559042989,-3.734471797943,,,"Puerta de Hierro, s/n",http://www.esmadrid.com/informacion-turistica/palacio-moncloa,turismo
89534,Mustang Road,40.532161600000,-3.647973000000,(+34) 914 529 049,info@mustangroad.es,"de Fuencarral, 44, Edificio 9, Oficina 34",http://www.esmadrid.com/informacion-turistica/mustang-road,turismo
89400,Escuela Espa&ntilde;ola de Cata,40.428983900000,-3.670689200000,(+34) 91 402 67 04,info@escueladecata.com,"de las Mártires Concepcionistas, 19",http://www.esmadrid.com/informacion-turistica/escuela-espanola-cata,turismo
88711,Espacio Abierto Quinta de los Molinos,40.441277700000,-3.626589100000,(+34) 91 318 45 90,info@espacioabiertoqm.com,"de Alcalá, 527",http://www.esmadrid.com/informacion-turistica/espacio-abierto-quinta-molinos,turismo
88027,Cripta de la Catedral de la Almudena,40.415219640526,-3.714336454868,(+34) 91 548 09 30,criptadelaalmudena@gmail.com,"Mayor, 90",http://www.esmadrid.com/informacion-turistica/cripta-catedral-almudena,turismo
87707,Concha Barrios Gallery,40.423556200000,-3.683043900000,(+34) 915 77 64 07,admin@conchabarrios.com,"de Núñez de Balboa, 21",http://www.esmadrid.com/informacion-turistica/concha-barrios-gallery,turismo
87502,Monumento a Alfonso XII,40.417335267482,-3.683080673218,,,Maestro Villa,http://www.esmadrid.com/informacion-turistica/monumento-alfonso-xii,turismo
87483,Huerta de la Partida,40.417841701133,-3.724579811096,,,"del Embarcadero, 3",http://www.esmadrid.com/informacion-turistica/huerta-partida,turismo
87482,Jardines de San Francisco el Grande,40.410043700000,-3.714033400000,,,"Gran Vía de San Francisco, 29",http://www.esmadrid.com/informacion-turistica/jardines-san-francisco-grande,turismo
87212,Teatro de la Escuela,40.426273700000,-3.702987000000,(+34)  912 98 41 15,info@escuelamendezleite.com,"de la Palma, 18",http://www.esmadrid.com/informacion-turistica/teatro-escuela,turismo
87207,Sala Arapiles 16,40.433132976438,-3.708210289478,(+34) 91 467 85 25,arapiles16@unir.net,"de Arapiles, 16",http://www.esmadrid.com/informacion-turistica/sala-arapiles-16,turismo
87163,Javier Aranburu,40.435669000000,-3.713346700000,(+34) 91 080 51 94,contacto@javieraranburu.com,"de Guzmán el Bueno, 63",http://www.esmadrid.com/informacion-turistica/javier-aranburu,turismo
87152,Centro Cultural Isl&aacute;mico de Madrid,40.438406220635,-3.658039569855,(+34) 91 3262610,info@centro-islamico.com,"Salvador de Madariaga, 7",http://www.esmadrid.com/informacion-turistica/centro-cultural-islamico-madrid,turismo
87101,Virtual Recall,40.311393200000,-3.484234100000,(+34) 91 871 11 49,informacion@virtualrecall.es,"de Madrid, 128",http://www.esmadrid.com/informacion-turistica/virtual-recall,turismo
87071,Parque Europa,40.444914013750,-3.453403115273,,,"de los Cipreses, s/n",http://www.esmadrid.com/informacion-turistica/parque-europa,turismo
86856,Fundaci&oacute;n Fernando de Castro,40.426119000000,-3.698757800000,(+34) 91 448 10 46,,"de San Mateo, 15",http://www.esmadrid.com/informacion-turistica/fundacion-fernando-castro,turismo
86836,Centro del Actor,40.385867400000,-3.743021000000,(+34) 91 297 70 90,info@centrodelactor.com,"Dolores Armengot, 22, bajo",http://www.esmadrid.com/informacion-turistica/centro-actor,turismo
86562,Impact Hub ,40.411463013493,-3.694105893374,(+34) 91 429 15 86,madrid@impacthub.net,"del Gobernador, 26",http://www.esmadrid.com/informacion-turistica/impact-hub,turismo
86552,Utopicus,40.419299200000,-3.697627700000,(+34) 91 159 05 10,madrid@utopicus.es,"Gran Vía, 4",http://www.esmadrid.com/informacion-turistica/utopicus,turismo
86547,Swinton &amp; Grant,40.405956100000,-3.701775000000,(+34) 91 449 61 28,aloha@swintonandgrant.com,"de Miguel Servet, 21",http://www.esmadrid.com/informacion-turistica/swinton-grant,turismo
86525,Espositivo,40.430663100000,-3.701082200000,(+34) 910 721 906,info@espositivo.es,"de Palafox, 5",http://www.esmadrid.com/informacion-turistica/espositivo,turismo
86511,Lock &amp; Be Free (calle Toledo),40.412386107360,-3.707657754421,(+34) 644 185 243,info@lockandbefree.com,"de Toledo, 41",http://www.esmadrid.com/informacion-turistica/lock-be-free-calle-toledo,turismo
86466,Sala Equis,40.412017484005,-3.705750703812,,info@salaequis.es,"del Duque de Alba, 4",http://www.esmadrid.com/informacion-turistica/sala-equis,turismo
86294,Rompeolas,40.401565507973,-3.696600347757,(+34) 91 292 57 57,rompeolas.coop@gmail.com,"de Tarragona, 18",http://www.esmadrid.com/informacion-turistica/rompeolas,turismo
86136,La Escalera de Jacob,40.411355400000,-3.702835900000,(+34) 625 721 745 ,info@laescaleradejacob.es,"de Lavapiés, 9",http://www.esmadrid.com/informacion-turistica/escalera-jacob,turismo
85912,Espacio Mad Cool / Recinto Valdebebas - IFEMA,40.478390199412,-3.620209693909,,,"Alejandro de la Sota, 51",http://www.esmadrid.com/informacion-turistica/espacio-mad-cool,turismo
85871,Lobby Art Gallery,40.421439720780,-3.708148598671,(+34) 91 547 28 00,hemperador@emperadorhotel.com,"Gran Vía, 53",http://www.esmadrid.com/informacion-turistica/lobby-art-gallery,turismo
85866,Jardines del Descubrimiento,40.425194900000,-3.688768100000,,,"de Goya, 2",http://www.esmadrid.com/informacion-turistica/jardines-descubrimiento,turismo
85702,Vest&iacute;bulo de Pac&iacute;fico,40.401503209943,-3.674846291542,(+34) 644 169 531,info@museosmetromadrid.es,"de la Ciudad de Barcelona, 79",http://www.esmadrid.com/informacion-turistica/antiguo-vestibulo-estacion-pacifico,turismo
85609,Fox in a Box (&Aacute;ncora),40.402782000000,-3.692018100000,(+ 34) 91 040 92 82,info@foxinaboxmadrid.com,"del Ancora, 12",http://www.esmadrid.com/informacion-turistica/fox-box-ancora,turismo
85606,Art Room ,40.413004899921,-3.697520345449,(+34) 91 369 35 80,info@art-room.com.es,"de Santa María, 15",http://www.esmadrid.com/informacion-turistica/art-room,turismo
85593,Cava Baja Gallery,40.412239500000,-3.709350200000,(+ 34) 91 825 80 07,info@cavabajagallery.com,"de la Cava Baja, 27",http://www.esmadrid.com/informacion-turistica/cava-baja-gallery,turismo
85252,Desert City,40.598981362826,-3.581585884094,(+ 34) 91 833 50 04,hola@desertcity.es,"Autovía A1, Km 25",http://www.esmadrid.com/informacion-turistica/desert-city,turismo
85185,Estadio Wanda Metropolitano,40.436299422388,-3.599481582642,(+34) 91 365 09 31,territorioatleti@atleticodemadrid.com,"de Luis Aragonés, s/n",http://www.esmadrid.com/informacion-turistica/estadio-wanda-metropolitano,turismo
84554,La Morada,40.426121100000,-3.702449700000,(+ 34) 91 173 09 09,info@la-morada.es,"de la Palma, 11",http://www.esmadrid.com/informacion-turistica/la-morada,turismo
84526,Siesta &amp; Go,40.448833500000,-3.695009900000,(+ 34) 91 199 38 74 ,info@siestaandgo.com,"de Orense, 10",http://www.esmadrid.com/informacion-turistica/siesta-go,turismo
84235,El silo de Hortaleza,40.474921217934,-3.645406365395,(+34) 91 480 27 81,cultuhortaleza@madrid.es,"Mar de las Antillas, 14 (Parque Huerta de la Salud)",http://www.esmadrid.com/informacion-turistica/silo-hortaleza,turismo
84234,Iglesia de San Pedro ad V&iacute;ncula,40.380351229036,-3.620284795761,(+34) 913 311 222,parroquia.sanpedroadv@gmail.com,"de Sierra Gorda, 5",http://www.esmadrid.com/informacion-turistica/iglesia-san-pedro-ad-vincula,turismo
84233,Iglesia de Santa Mar&iacute;a la Antigua,40.401339805000,-3.605039119721,(+34) 917 765 202,antiguavicalvaro@archimadrid.es,"Virgen de la Antigua, 9",http://www.esmadrid.com/informacion-turistica/iglesia-santa-maria-antigua,turismo
84232,Parque de Moratalaz ,40.408841700000,-3.643813500000,,,"de Moratalaz, 183",http://www.esmadrid.com/informacion-turistica/parque-moratalaz,turismo
84231,La Colonia de la Prensa,40.378322100000,-3.747686000000,,,"Rodríguez Lázaro, 1",http://www.esmadrid.com/informacion-turistica/colonia-prensa,turismo
84228,El Pardo,40.520686500000,-3.775665800000,,,"Manuel Alonso, s/n",http://www.esmadrid.com/informacion-turistica/pardo,turismo
84227,La Corrala de Tribulete,40.407951400000,-3.702444300000,,,"de Tribulete, 12",http://www.esmadrid.com/informacion-turistica/corrala-tribulete,turismo
84198,Dolmen de Dal&iacute;,40.423927600000,-3.673338600000,,,"de Salvador Dalí, 15",http://www.esmadrid.com/informacion-turistica/dolmen-dali,turismo
84197,Cementerio de La Almudena,40.425945200000,-3.645082600000,(+34) 91 510 84 64,almudena@sfmadrid.es,"de Daroca, 90",http://www.esmadrid.com/informacion-turistica/cementerio-almudena,turismo
84185,Norman Foster Foundation,40.431631000000,-3.691457300000,(+34) 91 389 89 65,info@normanfosterfoundation.org,"del Monte Esquinza, 48",http://www.esmadrid.com/informacion-turistica/norman-foster-foundation,turismo
83866,Ermita de San Isidro,40.400619000000,-3.725722100000,(+34) 91 365 08 41,info@cementeriodesanisidro.com,"de la Ermita del Santo, 72",http://www.esmadrid.com/informacion-turistica/ermita-san-isidro,turismo
83865,Rosaleda del Parque del Oeste,40.426499493173,-3.721919059753,(+34) 91 548 95 12/3,sviveros@madrid.es,"de la Rosaleda, 1",http://www.esmadrid.com/informacion-turistica/rosaleda-parque-oeste,turismo
83814,FeedingArtWorld ,40.411759900000,-3.699586700000,(+ 34) 692 056 909,info@feedingart.es,"de la Rosa, 10",http://www.esmadrid.com/informacion-turistica/feedingartworld,turismo
83563,Windobona Indoor Skydiving Madrid,40.364081298972,-3.740115165710,(+34) 91 230 62 51,reservas@windobona.es,"Calderilla, 16",http://www.esmadrid.com/informacion-turistica/windobona-indoor-skydiving-madrid,turismo
83467,Real Conservatorio Superior de M&uacute;sica,40.409130500000,-3.694402000000,(+34) 91 539 29 01,infosecre@rcsmm.eu,"Doctor Mata, 2",http://www.esmadrid.com/informacion-turistica/real-conservatorio-superior-musica,turismo
83183,Teamlabs,40.411578100000,-3.706699200000,(+34) 91 296 60 17,info@teamlabs.es,"del Duque de Alba, 15, 1ª planta. ",http://www.esmadrid.com/informacion-turistica/teamlabs,turismo
83145,Galer&iacute;a &Eacute;boli,40.416843124678,-3.711512088776,(+34) 91 547 14 80,eboli@galeriaeboli.com,de Ramales,http://www.esmadrid.com/informacion-turistica/galeria-eboli,turismo
82856,La Encina,40.402936200000,-3.702779600000,(+34) 91 056 70 02,info@laencinateatro.com,"de Ercilla, 15",http://www.esmadrid.com/informacion-turistica/encina,turismo
82772,Autocine Madrid Race Centro,40.486126800000,-3.677773500000,(+34) 91 729 49 66,info@autocinesmadrid.es,"de la Isla de Java, 2",http://www.esmadrid.com/informacion-turistica/autocine-madrid-race,turismo
82654,Auditorio Parque El Para&iacute;so,40.429977500000,-3.621828100000,(+34)  91 588 80 65,cultusanblas@madrid.es,"de Arcentales, 4",http://www.esmadrid.com/informacion-turistica/auditorio-parque-paraiso,turismo
82521,Zero Latency,40.449490321538,-3.669347763062,(+34) 91 052 06 71,info_madrid@zerolatencyvr.es,"de Pradillo, 54",http://www.esmadrid.com/informacion-turistica/zero-latency,turismo
82491,Sala de Arte Santander,40.395462800000,-3.866519400000,(+34) 91 259 67 19,fundacionbs@gruposantander.com,"de Cantabria, 2",http://www.esmadrid.com/informacion-turistica/sala-arte-santander,turismo
82437,La Casa. B the travel brand Xperience. ,40.437856500000,-3.691524400000,(+34) 91 535 58 99,flagship.xperience@bthetravelbrand.com,"de Miguel Ángel, 33",http://www.esmadrid.com/informacion-turistica/casa-b-travel-brand-xperience,turismo
82416,La Arena Esports,40.479473300000,-3.706682300000,(+34)  91 730 10 00,infolaarena@ogseries.com,"de Monforte de Lemos, 36",http://www.esmadrid.com/informacion-turistica/arena-esports,turismo
82307,Espacio Que Vuela,40.403282500000,-3.702071600000,(+34) 911 10 55 42,hola@vueladanzaerea.com,"de Martín de Vargas, 13, local 1",http://www.esmadrid.com/informacion-turistica/espacio-vuela,turismo
82166,Otros espacios Recurso tur&iacute;stico ,40.416947300000,-3.703528500000,,,-,http://www.esmadrid.com/otros-espacios,turismo
82160,Galer&iacute;a Yuri L&oacute;pez Kullins,40.424602100000,-3.698956000000,(+34) 628 16 89 52,info@yurilopezkullins.com,"de Santa Brigida, 23",http://www.esmadrid.com/informacion-turistica/galeria-yuri-lopez-kullins,turismo
81681,Abierto Espacio Cultural,40.431643500000,-3.695801900000,(+34) 91 532 28 28,fundacionfie@fundacionfie.org,"del General Arrando, 14",http://www.esmadrid.com/informacion-turistica/abierto-espacio-cultural,turismo
81330,Real Coliseo de Carlos III,40.590876000000,-4.146986000000,(+34) 91 890 44 11,teatro.coliseocarlos3@madrid.org,"Floridablanca,  20",http://www.esmadrid.com/informacion-turistica/real-coliseo-carlos-iii,turismo
81294,Capilla del Museo de Historia,40.425777300000,-3.700831500000,(+34) 91 701 18 63,smuseosm@madrid.es,"de Fuencarral, 78",http://www.esmadrid.com/informacion-turistica/capilla-museo-historia,turismo
81289,Galer&iacute;a Daniel Cuevas,40.428665400000,-3.695567100000,(+34) 91 308 15 69,info@galeriadanielcuevas.com,"de Santa Engracia, 6",http://www.esmadrid.com/informacion-turistica/galeria-daniel-cuevas,turismo
81236,C Arte C,40.439876040780,-3.728892803192,(+34) 91 394 11 16,museos@ucm.es,"Juan de Herrera, 2",http://www.esmadrid.com/informacion-turistica/c-arte-c,turismo
81219,Rent Bull,40.441829800000,-3.669696700000,(+34) 91 413 56 12,info@rentbull.es,"del Corazón de María, 11",http://www.esmadrid.com/informacion-turistica/rent-bull,turismo
81113,Cines Verdi ,40.436698300000,-3.704061100000,(+34) 91 447 39 30,contacto@cines-verdi.com,"de Bravo Murillo, 28",http://www.esmadrid.com/informacion-turistica/cines-verdi,turismo
80956,Puxagallery,40.425569000000,-3.695591900000,(+34) 91 052 5544,contacto@puxagallery.com,"de Santa Teresa, 10",http://www.esmadrid.com/informacion-turistica/puxagallery,turismo
80947,Museo Eduardo Torroja,40.468500500000,-3.757952000000,(+34) 91 740 05 40,contacto@fundacioneduardotorroja.org,"Padre Huidobro , s/n",http://www.esmadrid.com/informacion-turistica/museo-eduardo-torroja,turismo
80827,La Industrial,40.426001800000,-3.703673200000,(+34) 91 446 38 19,info@laindustrialservicios.com,"de San Andrés, 8",http://www.esmadrid.com/informacion-turistica/industrial,turismo
80809,Auditorio Rafael del Pino,40.434217056925,-3.689657449722,(+34) 91 396 86 36,info@auditoriorafaeldelpino.es,"de Rafael Calvo, 39 A",http://www.esmadrid.com/informacion-turistica/auditorio-rafael-pino,turismo
80755,Capitol Gran V&iacute;a,40.420446500000,-3.706582100000,(+34) 91 522 22 29,info@capitolgranvia.com,"Gran Vía, 41",http://www.esmadrid.com/informacion-turistica/capitol-gran,turismo
80635,Teatro de las Aguas,40.410865100000,-3.712238800000,(+34) 91 425 93 29,info@teatrodelasaguas.com,"de las Aguas, 8",http://www.esmadrid.com/informacion-turistica/teatro-aguas,turismo
80593,MEEU,40.473175686911,-3.681873949203,(+34) 918 31 41 31,info@meeu.es,"Agustín de Foxa, s/n",http://www.esmadrid.com/informacion-turistica/meeu,turismo
80539,Micropolix,40.565996556184,-3.609311782954,(+34) 91 799 00 00,info@micropolix.com,Salvador de Madariaga,http://www.esmadrid.com/informacion-turistica/micropolix,turismo
80524,La Maliciosa,40.767216643423,-3.968596458435,,,"M-608, km 13",http://www.esmadrid.com/informacion-turistica/maliciosa,turismo
80486,Torre de Avenida de Am&eacute;rica,40.437427800000,-3.676878400000,,,"de América, 2",http://www.esmadrid.com/informacion-turistica/torre-avenida-america,turismo
80484,Edificio de la Uni&oacute;n y el F&eacute;nix,40.432480600000,-3.689457700000,,,"de la Castellana, 33",http://www.esmadrid.com/informacion-turistica/edificio-union-fenix,turismo
80482,Torre Europa,40.451667000000,-3.691667000000,,,"de la Castellana, 95",http://www.esmadrid.com/informacion-turistica/torre-europa,turismo
80480,Torre del Complejo Cuzco,40.457226300000,-3.689428200000,,,"de la Castellana, 160",http://www.esmadrid.com/informacion-turistica/torre-complejo-cuzco,turismo
80405,TeatroGoya multiespacio,40.407606100483,-3.725266456604,(+34) 91 155 63 00,info@teatrogoya.com,"Sepúlveda, 3 y 5",http://www.esmadrid.com/informacion-turistica/teatrogoya-multiespacio,turismo
80391,Fundaci&oacute;n Diario Madrid,40.427922400000,-3.700202700000,(+34) 91 594 48 21,,"de Larra, 14",http://www.esmadrid.com/informacion-turistica/fundacion-diario-madrid,turismo
80381,Parroquia Virgen de la Paloma,40.408275995861,-3.711833953857,(+34) 91 365 46 69,virgenlapaloma@gmail.com,"Virgen de la Paloma, 1",http://www.esmadrid.com/informacion-turistica/parroquia-virgen-paloma,turismo
80334,Madrid en Ruta,40.417930000000,-3.711590000000,(+34) 648 07 85 68,info@madridenruta.com,--,http://www.esmadrid.com/informacion-turistica/madrid-ruta,turismo
80321,El Cerro de los &Aacute;ngeles,40.309934371174,-3.684926033020,(+34) 672 392 946,info@cerrodelosangeles.es,"de Andalucía (A4), km 13,5",http://www.esmadrid.com/informacion-turistica/cerro-angeles,turismo
80293,Cooking Point,40.412386600000,-3.697495400000,(+34) 91 011 51 54,info@cookingpoint.es,"de Moratín, 11 ",http://www.esmadrid.com/informacion-turistica/cooking-point,turismo
80277,Centro Cultural La Tortuga ,40.411668000000,-3.704736000000,(+34) 91 071 09 51,centrolatortuga@gmail.com,"de la Espada, 6",http://www.esmadrid.com/informacion-turistica/centro-cultural-tortuga,turismo
80261,Ciento y pico,40.426834200000,-3.702687100000,(+34) 633 113 114 ,info@cientoypico.com,"de Velarde, 14",http://www.esmadrid.com/informacion-turistica/ciento-pico,turismo
80139,Heliflights Spain: rutas y paseos en helic&oacute;ptero,40.489435800000,-3.874936200000,(+34) 91 055 66 99,reservas@heliflightspain.com,"Comunidad de Madrid, 35 bis. Edificio Burgosol. Oficina 26",http://www.esmadrid.com/informacion-turistica/heliflights-spain-rutas-paseos-helicoptero,turismo
80132,Escuela europea de cata,40.423812100000,-3.696886800000,(+34) 666 300 039,escuela@escuelaeuropeadecata.com," de San Lucas, 3. Local derecho. ",http://www.esmadrid.com/informacion-turistica/escuela-europea-cata,turismo
79909,Cabeza de Hierro Mayor,40.797339855413,-3.935379981995,,,M-608,http://www.esmadrid.com/informacion-turistica/cabeza-hierro-mayor,turismo
79883,Cerro de Valdemart&iacute;n,40.774817500000,-3.931270900000,,,"M-608, km 2",http://www.esmadrid.com/informacion-turistica/cerro-valdemartin,turismo
79871,Puerto de Navacerrada,40.788124600000,-4.002171100000,,,"Dos Castillas, 3",http://www.esmadrid.com/informacion-turistica/puerto-navacerrada,turismo
79862,La Bola del Mundo,40.784838918581,-3.979378938675,,,de José Salgado,http://www.esmadrid.com/informacion-turistica/bola-mundo,turismo
79861,Puerto de los Leones,40.706433121302,-4.141674041748,,,"de la Coruña, km 57",http://www.esmadrid.com/informacion-turistica/puerto-leones,turismo
79851,Monasterio de El Escorial,40.589941500667,-4.147875308991,(+34) 91 890 59 03,secretaria.escorial@patrimonionacional.es,"Don Juan de Borbón y Battenberg, s/n ",http://www.esmadrid.com/informacion-turistica/monasterio-escorial,turismo
79850,Facultad de Ciencias Biol&oacute;gicas y Geol&oacute;gicas,40.448906563665,-3.725749254227,(+34)913 945 066    ,irbio@bio.ucm.es,"de José Antonio Novais, 12",http://www.esmadrid.com/informacion-turistica/facultad-ciencias-biologicas-geologicas,turismo
79839,Facultad de Medicina,40.444031375053,-3.724170684672,(+34)91 394 13 28  ,secre.alumnos@med.ucm.es,"de Ramón y Cajal, s/n",http://www.esmadrid.com/informacion-turistica/facultad-medicina,turismo
79838,Puente de los Franceses,40.433669914909,-3.735866546631,,,"de Aniceto Marinas, 116",http://www.esmadrid.com/informacion-turistica/puente-franceses,turismo
79826,Junta Municipal de Distrito de Moncloa,40.435338600000,-3.718571800000,(+34) 91 588 69 83,jmmoncloa@madrid.es,"de Moncloa, 1",http://www.esmadrid.com/informacion-turistica/junta-municipal-distrito-moncloa,turismo
79808,Torres de Col&oacute;n,40.425819200000,-3.691706800000,,,"de Génova, 31",http://www.esmadrid.com/informacion-turistica/torres-colon,turismo
79792,Torres Blancas,40.439878600000,-3.671945600000,,,"de América, 37",http://www.esmadrid.com/informacion-turistica/torres-blancas,turismo
79783,Torre Titania,40.446800000000,-3.694500000000,,,"de Raimundo Fernández Villaverde, 79",http://www.esmadrid.com/informacion-turistica/torre-titania,turismo
79768,Torre Picasso,40.450286346831,-3.692806363106,,,"Pablo Ruiz Picasso, s/n",http://www.esmadrid.com/informacion-turistica/torre-picasso,turismo
79741,Torre Cepsa,40.475713371387,-3.687779903412,,,"de la Castellana, 259",http://www.esmadrid.com/informacion-turistica/torre-cepsa,turismo
79740,Torre PwC,40.476861217969,-3.687899749239,,,"de la Castellana, 259",http://www.esmadrid.com/informacion-turistica/torre-pwc,turismo
79738,Torre de Cristal,40.476971718281,-3.687640428543,,,"de la Castellana, 259",http://www.esmadrid.com/informacion-turistica/torre-cristal,turismo
79737,Torre Emperador Castellana,40.479111800000,-3.686590200000,,,"de la Castellana, 259D",http://www.esmadrid.com/informacion-turistica/torre-emperador-castellana,turismo
79660,Lock &amp; Be Free (calle Jardines),40.419052700000,-3.700938000000,(+34) 644 185 243,info@lockandbefree.com,"de los Jardines, 11",http://www.esmadrid.com/informacion-turistica/lock-be-free-calle-jardines,turismo
79491,La Mano de Botero,40.441011046570,-3.691642284393,,,de San Juan de la Cruz,http://www.esmadrid.com/informacion-turistica/mano-botero,turismo
79490,Nuevos Ministerios,40.442252600000,-3.692192400000,,,"de la Castellana, 63",http://www.esmadrid.com/informacion-turistica/nuevos-ministerios,turismo
79488,Monumento a la Constituci&oacute;n de 1978,40.440929583495,-3.690828233957,,,"de José Gutiérrez Abascal, 4",http://www.esmadrid.com/informacion-turistica/monumento-constitucion-1978,turismo
79480,Consejo Superior de Investigaciones Cient&iacute;ficas - CSIC,40.441109031783,-3.686159849167,(+34) 91 568 14 00,,"de Serrano, 117",http://www.esmadrid.com/informacion-turistica/consejo-superior-investigaciones-cientificas-csic,turismo
79468,Monumento a Emilio Castelar,40.434610200000,-3.689162800000,,,"de la Castellana, 39",http://www.esmadrid.com/informacion-turistica/monumento-emilio-castelar,turismo
79395,Ermita de Santa Mar&iacute;a La Antigua,40.382497500000,-3.752510500000,(+34) 91 461 03 05,sansebastiancarabanchel@archimadrid.es,"de Monseñor Óscar Romero, 92",http://www.esmadrid.com/informacion-turistica/ermita-santa-maria-antigua,turismo
79383,Monasterio de Santa Mar&iacute;a de El Paular,40.888652700000,-3.887755000000,(+34) 91 869 19 58,info@monasteriodeelpaular.com,"M-604, km 27,6",http://www.esmadrid.com/informacion-turistica/monasterio-santa-maria-paular,turismo
79102,Madrid Fly,40.505495229686,-3.888258934021,(+34) 91 264 83 53 ,info@madridfly.com,"Nuestra Señora del Retamar, 16",http://www.esmadrid.com/informacion-turistica/madrid-fly,turismo
79032,Archivo Regional de la Comunidad de Madrid,40.399730245120,-3.690639138222,(+34) 91 720 88 67,arcm@madrid.org,"de Ramirez de Prado, 3",http://www.esmadrid.com/informacion-turistica/archivo-regional-comunidad-madrid,turismo
78983,Museo EMT,40.476366266112,-3.683037757874,(+34) 91 406 88 00,museo@emtmadrid.es,"de Mauricio Legendre, 38 - 40",http://www.esmadrid.com/informacion-turistica/museo-emt,turismo
78944,The Robot Museum,40.432214300000,-3.686964700000,(+34) 644 32 64 70,info@therobotmuseum.eu ,"de Serrano, 61",http://www.esmadrid.com/informacion-turistica/robot-museum,turismo
78777,Punto de Informaci&oacute;n Tur&iacute;stica Paseo del Prado,40.415523300000,-3.694064100000,,turismo@esmadrid.com,de Cánovas del Castillo ,http://www.esmadrid.com/informacion-turistica/punto-informacion-turistica-paseo-prado,turismo
78589,Punto de Informaci&oacute;n Tur&iacute;stica Estadio Santiago Bernab&eacute;u,40.451765923571,-3.690054962861,,turismo@esmadrid.com,"de la Castellana, 138 - Junto al estadio Santiago Bernabéu",http://www.esmadrid.com/informacion-turistica/punto-informacion-turistica-estadio-santiago-bernabeu,turismo
78588,Punto de Informaci&oacute;n Tur&iacute;stica Plaza de Callao,40.419910900000,-3.705911300000,,turismo@esmadrid.com,"de Callao, s/n",http://www.esmadrid.com/informacion-turistica/punto-informacion-turistica-plaza-callao,turismo
78550,Sala Berlanga,40.435964615037,-3.714467883110,(+34) 91 455 08 78 ,salaberlanga@fundacionsgae.org,"de Andrés Mellado, 53",http://www.esmadrid.com/informacion-turistica/sala-berlanga,turismo
78512,Madrid International Lab,40.412012200000,-3.713722400000,(+34) 91 513 27 93,internationallab@madrid.es,"de Bailén, 41",http://www.esmadrid.com/informacion-turistica/madrid-international-lab,turismo
78421,Parque de San Isidro,40.399260700000,-3.728484700000,,,"de la Ermita del Santo, 74",http://www.esmadrid.com/informacion-turistica/parque-san-isidro,turismo
78245,Aventura Amazonia Pelayos,40.366983282423,-4.322819709778,(+34) 91 852 25 46,reservas.pelayos@aventura-amazonia.com,de la Enfermería s/n,http://www.esmadrid.com/informacion-turistica/aventura-amazonia-pelayos,turismo
78238,Aventura Amazonia Cercedilla,40.770093000000,-4.066684900000,(+34) 91 852 38 08,info@aventura-amazonia.com,"de las Dehesas, M-966,  Km 3,9",http://www.esmadrid.com/informacion-turistica/aventura-amazonia-cercedilla,turismo
78233,La Nave (antigua F&aacute;brica Boetticher),40.347018379924,-3.696599006653,(+34) 619 388 431,info@lanavemadrid.com,"Cifuentes, 5",http://www.esmadrid.com/informacion-turistica/nave-antigua-fabrica-boetticher,turismo
78122,La Nueva Cubierta de Legan&eacute;s,40.325951535387,-3.758590221405,(+34) 91 689 87 15,info@lanuevacubierta.com,"del Maestro, 4",http://www.esmadrid.com/informacion-turistica/nueva-cubierta-leganes,turismo
78058,Espacio de Arte ROR,40.440299900000,-3.694498400000,(+34) 91 027 32 44,info@rorgaleriadearte.com,"de Fernández de la Hoz, 59",http://www.esmadrid.com/informacion-turistica/espacio-arte-ror,turismo
78010,Theatre for the people,40.423093000000,-3.703862000000,(+34)  91 521 55 68,adan.black@theatreforthepeople.com,"de Carlos Cambronero, 5, local bajo izquierda",http://www.esmadrid.com/informacion-turistica/theatre-people,turismo
78001,R&eacute;plika Teatro,40.448220743741,-3.711807131767,(+34) 91 535 05 70,teatro@replikateatro.com,"Explanada, 14",http://www.esmadrid.com/informacion-turistica/replika-teatro,turismo
77968,Teatro Lara - Sala Lola Membrives,40.422098900000,-3.704451100000,,info@teatrolara.org  ,"Baja de San Pablo, 15",http://www.esmadrid.com/informacion-turistica/teatro-lara-sala-lola-membrives,turismo
77940,La corseteria - NTF,40.411895800000,-3.702101100000,(+34) 91 163 28 49,info@nuevoteatrofronterizo.es,"de la Cabeza, 8, local derecha",http://www.esmadrid.com/informacion-turistica/corseteria-ntf,turismo
77932,Estudio 2 Manuel Galiana,40.403136000000,-3.702563200000,(+34) 639 16 91 58,cuentame@martesteatro.com,"de Moratines, 11",http://www.esmadrid.com/informacion-turistica/estudio-2-manuel-galiana,turismo
77922,Sojo Laboratorio Teatral,40.404499400000,-3.712157200000,(+34) 697 94 36 76,sojoteatro@gmail.com ,"de San Isidoro de Sevilla, 2",http://www.esmadrid.com/informacion-turistica/sojo-laboratorio-teatral,turismo
77869,Caf&eacute; Teatro Serendipia,40.435192900000,-3.645845300000,(+34) 601 18 47 71,contacto@cafeteatroserendipia.com,"Germán Perez Carrasco, 21",http://www.esmadrid.com/informacion-turistica/cafe-teatro-serendipia,turismo
77867,Bulul&uacute; 2120,40.401962800000,-3.696499100000,(+34) 91 360 01 93,bululu@bululu2120.com,"de Canarias, 16",http://www.esmadrid.com/informacion-turistica/bululu-2120,turismo
77865,Arte &amp; Desmayo,40.394818400000,-3.713560200000,(+34) 609 15 85 78,artedesmayo@gmail.com,"Baleares, 14",http://www.esmadrid.com/informacion-turistica/arte-desmayo,turismo
77806,Bowling Chamart&iacute;n,40.473260614882,-3.682230905820,(+34) 91 315 71 19,info@bowlingchamartin.com,"Agustín de Foxa, s/n",http://www.esmadrid.com/informacion-turistica/bowling-chamartin,turismo
77802,Retiro Magic,40.421416900000,-3.679647600000,(+34) 660 22 97 12,info@madrid-segway.com ,"de Menéndez Pelayo, 9",http://www.esmadrid.com/informacion-turistica/retiro-magic,turismo
77786,Centro cultural Pilar Mir&oacute;,40.381070431931,-3.613471984863,(+34) 91 305 24 08,pilarmiro.coordinacion@madrid.org,"Antonio María Segovia, s/n",http://www.esmadrid.com/informacion-turistica/centro-cultural-pilar-miro,turismo
77776,Teatro Tarambana,40.385821300000,-3.743251100000,(+34)  91 461 83 34,info@tarambana.net,"Dolores Armengot , 31",http://www.esmadrid.com/informacion-turistica/teatro-tarambana,turismo
77760,MINIMA espacio esc&eacute;nico,40.407053300000,-3.698011400000,(+34) 91 526 44 62,info@minimaespacioescenico.com  ,"de Mallorca, 4, local 3",http://www.esmadrid.com/informacion-turistica/minima-espacio-escenico,turismo
77749,Galer&iacute;a Cay&oacute;n ,40.428912858280,-3.692701756954,(+34) 91 310 62 89,info@galeriacayon.com,"Blanca de Navarra, 7 y  9",http://www.esmadrid.com/informacion-turistica/galeria-cayon,turismo
77631,La Juan Gallery,40.404681600000,-3.698734400000,(+34) 622 05 73 01,rosureta@gmail.com ,"de Fray Luis de León, 8",http://www.esmadrid.com/informacion-turistica/juan-gallery,turismo
77603,Campus tecnol&oacute;gico de Google,40.412497100000,-3.718226400000,,madrid-support@campus.co,"de Moreno Nieto, 2",http://www.esmadrid.com/informacion-turistica/campus-tecnologico-google,turismo
77472,Iglesia del Sant&iacute;simo Cristo de la Fe,40.411388700000,-3.696977000000,(+34) 91 369 43 52,,"de Atocha, 87",http://www.esmadrid.com/informacion-turistica/iglesia-santisimo-cristo-fe,turismo
77399,Fundaci&oacute;n Bot&iacute;n,40.424114900000,-3.681502100000,(+34) 917 81 41 32,fmabotin@fundacionbotin.org,"de Castelló, 18 C",http://www.esmadrid.com/informacion-turistica/fundacion-botin,turismo
77372,SegCityTours,40.413587400000,-3.698261700000,(+34) 629 61 22 16,info@segcitytours.es,"de las Huertas, 39",http://www.esmadrid.com/informacion-turistica/segcitytours,turismo
77364,Biblioteca Musical Victor Espin&oacute;s,40.427977740622,-3.711147308350,(+34)  91 588 57 60,bibliomusical@madrid.es,"del Conde Duque, 9",http://www.esmadrid.com/informacion-turistica/biblioteca-musical-victor-espinos,turismo
77361,Artistic Metropol,40.404845800000,-3.707451800000,(+34) 91 527 27 92,cinema@artisticfilms.es,"de las Cigarreras, 6",http://www.esmadrid.com/informacion-turistica/artistic-metropol,turismo
77293,NF Galer&iacute;a,40.428787291927,-3.692536801100,(+34) 91 308 59 86,info@nfgaleria.com,"Blanca de Navarra, 12",http://www.esmadrid.com/informacion-turistica/nf-galeria,turismo
77275,Museo Arqueol&oacute;gico Regional de Alcal&aacute; de Henares,40.482796939890,-3.369154930115,(+34) 91 879 66 66,mar@madrid.org,de las Bernardas s/n,http://www.esmadrid.com/informacion-turistica/museo-arqueologico-regional-alcala-henares,turismo
77257,AZarte,40.421416700000,-3.698351900000,(+34) 91 522 67 68,info@azarte.com,"de San Marcos, 19",http://www.esmadrid.com/informacion-turistica/azarte,turismo
77161,Instituto Confucio de Madrid,40.425160058588,-3.686159849167,(+34) 91 144 21 90,info@confuciomadrid.es,"de Goya, 10",http://www.esmadrid.com/informacion-turistica/instituto-confucio-madrid,turismo
77156,Centro Cultural de China en Madrid,40.434114978529,-3.678097128868,(+34) 91 782 00 00,info@ccchinamadrid.org,"del General Pardiñas, 73",http://www.esmadrid.com/informacion-turistica/centro-cultural-china-madrid,turismo
76933,Parque Cerro del T&iacute;o P&iacute;o,40.396147100000,-3.653471300000,,,"de Benjamín Palencia, 2",http://www.esmadrid.com/informacion-turistica/parque-cerro-tio-pio,turismo
76766,Nave 16. Centro de Residencias Art&iacute;sticas (Matadero),40.391568735297,-3.699070907226,(+34) 91 318 46 70,info@mataderomadrid.org,"de Legazpi, 8",http://www.esmadrid.com/informacion-turistica/nave-16-centro-residencias-artisticas-matadero,turismo
76648,Gabinete de Historia Natural,40.415878700000,-3.701614800000,(+34) 91 137 70 96,info@gabinetedehistorianatural.com,"de la Victoria, 9, 1ª planta",http://www.esmadrid.com/informacion-turistica/gabinete-historia-natural,turismo
76612,Monumento homenaje a las v&iacute;ctimas del 11-M,40.406895350536,-3.688895702362,,,"de la Ciudad de Barcelona, 2",http://www.esmadrid.com/informacion-turistica/monumento-homenaje-victimas-11-m,turismo
76599,Real Casa de Postas,40.415884900000,-3.704381500000,,,"de Pontejos, 3",http://www.esmadrid.com/informacion-turistica/real-casa-postas,turismo
76594,Parque de Berl&iacute;n,40.450408811423,-3.675763607025,,,"de Ramón y Cajal, 2",http://www.esmadrid.com/informacion-turistica/parque-berlin,turismo
76526,Fundaci&oacute;n Francisco Giner de los R&iacute;os,40.434889700000,-3.696794800000,(+34) 91 446 01 97, ile@fundacionginer.org,"del General Martínez Campos, 14",http://www.esmadrid.com/informacion-turistica/fundacion-francisco-giner-rios,turismo
76420,Gran Teatro CaixaBank Pr&iacute;ncipe P&iacute;o,40.420888390866,-3.718807697296,(+34) 911 331 353,atencionalcliente@laestacion.com,"de San Vicente, 44",http://www.esmadrid.com/informacion-turistica/gran-teatro-caixabank-principe-pio,turismo
76245,Nuev9 Norte,40.426072755476,-3.707569241524,(+34) 62 609 12 78,contacto@nuevenorte.com,"del Norte, 9",http://www.esmadrid.com/informacion-turistica/nuev9-norte,turismo
76244,El umbral de primavera,40.409528968249,-3.700366169214,(+34) 605 84 98 67,elumbraldeprimavera@gmail.com,"de la Primavera, 11",http://www.esmadrid.com/informacion-turistica/umbral-primavera,turismo
76063,Mirador Madrid,40.418933900000,-3.692152100000,(+34) 91 480 00 08,info@centrocentro.org,"de Cibeles, 1",http://www.esmadrid.com/informacion-turistica/mirador-madrid,turismo
75978,Focus On Women,40.433791109618,-3.706307223413,(+34) 634 50 26 36,info@focusonwomen.es,"Fernando el Católico, 3",http://www.esmadrid.com/informacion-turistica/focus-women,turismo
75956,Freijo Gallery,40.433530600000,-3.693172700000,(+34) 91 310 30 70,info@galeriafreijo.com,"de Zurbano, 46",http://www.esmadrid.com/informacion-turistica/freijo-gallery,turismo
75942,Fundaci&oacute;n conservatorio flamenco Casa Patas,40.412713100000,-3.701733500000,(+34) 91 429 84 71,fundacion@casapatas.com,"de los Cañizares, 10",http://www.esmadrid.com/informacion-turistica/fundacion-conservatorio-flamenco-casa-patas,turismo
75909,Aerocenter,40.368528231097,-3.780670166016,(+34) 91 511 14 26,info@aerocenter.net,"de la Fortuna, s/n, Aeropuerto de Cuatro Vientos, sector B",http://www.esmadrid.com/informacion-turistica/aerocenter,turismo
75847,Accessible Madrid,40.406446650971,-3.675767059249,(+34) 91 570 16 82, info@accessiblemadrid.com,"del Cavanilles, 7",http://www.esmadrid.com/informacion-turistica/accessible-madrid,turismo
75838,Galeria Herrero de Tejada,40.426410100000,-3.681867300000,(+34) 91 435 12 15,info@herrerodetejada.com,"de Hermosilla, 49",http://www.esmadrid.com/informacion-turistica/galeria-herrero-tejada,turismo
75833,Fundaci&oacute;n Pons,40.441020000000,-3.685818500000,(+34) 91 562 46 33,fundacion@pons.es,"de Serrano, 138",http://www.esmadrid.com/informacion-turistica/fundacion-pons,turismo
75717,Museo Casa Natal de Cervantes ,40.482297800000,-3.367162600000,(+34) 91 889 96 54,museocasanataldecervantes@madrid.org,"Mayor, 48",http://www.esmadrid.com/informacion-turistica/museo-casa-natal-cervantes,turismo
75652,Espacio Andrea D&rsquo;Odorico,40.414862300000,-3.700165100000,(+34) 91 360 14 84,teatroespanol@teatroespanol.com,"del Príncipe, 25",http://www.esmadrid.com/informacion-turistica/espacio-andrea-dodorico,turismo
75634,Cine Proyecciones,40.431497635518,-3.703207969666,,,"de Fuencarral, 136",http://www.esmadrid.com/informacion-turistica/cine-proyecciones,turismo
75388,Edificio Metr&oacute;polis,40.418710500000,-3.697552400000,,,"de Alcalá, 39",http://www.esmadrid.com/informacion-turistica/edificio-metropolis,turismo
75079,Bernal Espacio Galer&iacute;a ,40.453902700000,-3.694440200000,(+34) 669 95 04 95,galeria@bernalespacio.com,"de Orense, 32, 5º - 2",http://www.esmadrid.com/informacion-turistica/bernal-espacio-galeria,turismo
75057,Teseo Teatro,40.408501400000,-3.715897300000,(+34) 652 24 37 48,telon@teseoteatro.com,"de Segovia, 61",http://www.esmadrid.com/informacion-turistica/teseo-teatro,turismo
74894,Quinta de Torre Arias,40.443409300000,-3.618207200000,,,de Alcalá 551,http://www.esmadrid.com/informacion-turistica/quinta-torre-arias,turismo
74854,Teatros Luchana,40.431920000000,-3.698253300000,(+34) 910 075 684,taquilla@teatrosluchana.es,"de Luchana, 38",http://www.esmadrid.com/informacion-turistica/teatros-luchana,turismo
74692,Plaza y Calle Matadero (Matadero),40.392224844685,-3.698003754420,(+34) 91 318 46 70,info@mataderomadrid.org,"de la Chopera, 14",http://www.esmadrid.com/informacion-turistica/plaza-calle-matadero-matadero,turismo
74688,Extensi&oacute;n AVAM (Matadero) ,40.391665525631,-3.697591423988,(+34) 91 391 32 93,correo@avam.es,"de la Chopera, 14",http://www.esmadrid.com/informacion-turistica/extension-avam-matadero,turismo
69956,Palacio de Santa B&aacute;rbara,40.426321800000,-3.697137800000,(+34) 600 64 37 88,colusfolgueras@hotmail.com,"de Hortaleza, 87",http://www.esmadrid.com/informacion-turistica/palacio-de-santa-barbara,turismo
69955,Parque de la Bombilla,40.426695505753,-3.726253509522,,,"de Valladolid, 4",http://www.esmadrid.com/informacion-turistica/parque-bombilla,turismo
69954,La Academia de las Artes y las Ciencias Cinematogr&aacute;ficas de Espa&ntilde;a,40.427471200000,-3.693890700000,(+34) 91 593 46 48,academia@academiadecine.com,"de Zurbano, 3",http://www.esmadrid.com/informacion-turistica/la-academia-de-las-artes-y-las-ciencias-cinematograficas-de-espana,turismo
69953,Teatro Auditorio San Lorenzo de El Escorial ,40.590635037940,-4.144012928009,(+34) 91 890 56 21,info@uteteatrosdelcanal.com,"Felipe II, s/n",http://www.esmadrid.com/informacion-turistica/teatro-auditorio-san-lorenzo-escorial,turismo
69952,Auditorio Sony ,40.417006491983,-3.712311387062,(+34) 91 351 10 60,esmrs@albeniz.com,"de Requena, 1",http://www.esmadrid.com/informacion-turistica/auditorio-sony,turismo
69950,Alliance Fran&ccedil;aise de Madrid,40.420160500000,-3.708833600000,(+34) 91 435 15 32,info@afmadrid.net,"de Santo Domingo, 13",http://www.esmadrid.com/informacion-turistica/alliance-francaise-madrid,turismo
69949,Cine Paz,40.430886600000,-3.703327900000,(+34) 91 446 45 66,cinepazmadrid@gmail.com,"de Fuencarral, 125",http://www.esmadrid.com/informacion-turistica/cine-paz,turismo
69946,Biblioteca Hist&oacute;rica UCM Marqu&eacute;s de Valdecilla,40.425570900000,-3.707941100000,(+34) 91 394 66 12,buc_foa@bucm.es ,"del Noviciado, 3",http://www.esmadrid.com/informacion-turistica/biblioteca-historica-ucm-marques-valdecilla,turismo
69944,Escenario Puente del Rey,40.418854556997,-3.721972703934,,,del Rey,http://www.esmadrid.com/informacion-turistica/escenario-puente-rey,turismo
69943,Fundaci&oacute;n Manuel Benedito,40.432707200000,-3.685976200000,(+34) 91 575 66 43,info@fundacionmanuelbenedito.com,"de Juan Bravo, 4",http://www.esmadrid.com/informacion-turistica/fundacion-manuel-benedito,turismo
69942,Torre de Madrid,40.424312200000,-3.712375300000,,,"de España, 18",http://www.esmadrid.com/informacion-turistica/torre-madrid,turismo
69941,Edificio Espa&ntilde;a,40.424065622725,-3.711040019989,,,"de la Princesa, 19",http://www.esmadrid.com/informacion-turistica/edificio-espana,turismo
69940,Cuartel General del Ej&eacute;rcito del Aire,40.433203200000,-3.718282700000,,,"de la Princesa, 87",http://www.esmadrid.com/informacion-turistica/cuartel-general-ejercito-aire,turismo
69939,Arco de la Victoria,40.435931950816,-3.720213174820,,,"de la Memoria,  2",http://www.esmadrid.com/informacion-turistica/arco-victoria,turismo
69938,Cementerio Sacramental de San Isidro,40.400619000000,-3.725722100000,(+34) 91 365 08 41,info@cementeriodesanisidro.com,"de la Ermita del Santo, 72",http://www.esmadrid.com/informacion-turistica/cementerio-sacramental-de-san-isidro,turismo
69937,Instituto del Patrimonio Cultural de Espa&ntilde;a,40.441133528064,-3.734868764877,(+34) 91 550 44 36,ipce.biblioteca@mecd.es,"Pintor El Greco, 4",http://www.esmadrid.com/informacion-turistica/instituto-del-patrimonio-cultural-de-espana,turismo
69935,Ciudad del BBVA,40.501670100000,-3.664193700000,(+34) 91 374 60 00,,"Azul, 4",http://www.esmadrid.com/informacion-turistica/ciudad-del-bbva,turismo
69934,Espacio Cultural Dao&iacute;z y Velarde,40.401707465564,-3.677142262459,(+34)91 588 63 85,jmretiro@madrid.es,"de Daoíz y Velarde, 4",http://www.esmadrid.com/informacion-turistica/espacio-cultural-daoiz-velarde,turismo
69933,Estudio P&uacute;blico de Humanidades,40.414246300000,-3.712514800000,,,"de la Villa, 2",http://www.esmadrid.com/informacion-turistica/estudio-publico-humanidades,turismo
69932,Estatua de Miguel de Cervantes,40.415750595628,-3.696475625038,,,"de las Cortes, s/n",http://www.esmadrid.com/informacion-turistica/estatua-miguel-cervantes,turismo
69931,Imprenta Juan de la Cuesta,40.410820700000,-3.697753100000,(+34) 91 420 34 37,imprenta@sociedadcervantina.es ,"de San Eugenio, 7",http://www.esmadrid.com/informacion-turistica/imprenta-juan-cuesta,turismo
69930,Parque Forestal de Valdebebas-Felipe VI,40.485431300000,-3.637600100000,,,"de las Fuerzas Armadas, 11",http://www.esmadrid.com/informacion-turistica/parque-forestal-valdebebas-felipe-vi,turismo
69929,Palacio de los Duques de Pastrana,40.467086879566,-3.678723511746,(+34) 91 353 61 51,comercial@complejoduquesdepastrana.es," de la Habana, 208",http://www.esmadrid.com/informacion-turistica/palacio-de-los-duques-de-pastrana,turismo
69927,Torrespa&ntilde;a (El Pirul&iacute;),40.420512667151,-3.664203286171,,,"de O'Donnell, 62",http://www.esmadrid.com/informacion-turistica/torrespana-el-piruli,turismo
69926,C&aacute;mara Oscura,40.411269400000,-3.693865100000,(+34) 91 429 17 34,info@camaraoscura.net,"de la Alameda, 16, 1º B",http://www.esmadrid.com/informacion-turistica/camara-oscura,turismo
69923,La Factor&iacute;a de Papel,40.410450000000,-3.698477200000,(+34) 647 53 34 97,info@lafactoriadepapel.com,"de Buenavista, 8 Bajo",http://www.esmadrid.com/informacion-turistica/la-factoria-de-papel,turismo
69922,La Fiambrera Art Gallery,40.423251930789,-3.704766333103,(+34) 91 704 60 30,info@lafiambrera.net,"del Pez, 7",http://www.esmadrid.com/informacion-turistica/la-fiambrera-art-gallery,turismo
69921,Faro de Moncloa,40.437271170868,-3.721683025360,(+34)91 550 12 51,faromoncloa@esmadrid.com,"de la Memoria, 2",http://www.esmadrid.com/informacion-turistica/faro-de-moncloa,turismo
69920,Puente Monumental Parque de Arganzuela ,40.399367500000,-3.710148300000,,,"de las Yeserías, 19",http://www.esmadrid.com/informacion-turistica/puente-monumental-parque-de-arganzuela,turismo
69919,Estatua de Col&oacute;n,40.425204979083,-3.690467476845,,,"de Colón, s/n",http://www.esmadrid.com/informacion-turistica/estatua-de-colon,turismo
69918,Viaducto ,40.414165886452,-3.713614940643,,,"de Bailén, 12",http://www.esmadrid.com/informacion-turistica/viaducto,turismo
69915,Centro de Arte Dos de Mayo (CA2M) / M&oacute;stoles,40.324548800000,-3.863287900000,(+34) 91 276 02 21,ca2m@madrid.org,"de la Constitución , 23",http://www.esmadrid.com/informacion-turistica/centro-de-arte-dos-de-mayo-ca2m,turismo
69914,Biblioteca P&uacute;blica Municipal Iv&aacute;n de Vargas,40.414002512250,-3.709752559662,(+34) 91 758 62 11,bpivandevargas@madrid.es,"de San Justo, 5",http://www.esmadrid.com/informacion-turistica/biblioteca-publica-municipal-ivan-vargas,turismo
69913,Biblioteca P&uacute;blica Municipal Mario Vargas Llosa,40.426515827576,-3.699275851250,(+34) 91 480 24 33,bpvargasllosa@madrid.es,"de Barceló, 4",http://www.esmadrid.com/informacion-turistica/biblioteca-publica-municipal-mario-vargas-llosa,turismo
69912,Biblioteca P&uacute;blica Benito P&eacute;rez Gald&oacute;s,40.427810316437,-3.711141943932,(+34) 91 588 59 10,bpperezgaldos@madrid.es,"del Conde Duque, 9",http://www.esmadrid.com/informacion-turistica/biblioteca-publica-benito-perez-galdos,turismo
69911,Biblioteca P&uacute;blica Municipal Eugenio Tr&iacute;as,40.416698135862,-3.679078817368,(+34) 91 480 48 38,bpeugeniotrias@madrid.es,"Fernán Nuñez, 24",http://www.esmadrid.com/informacion-turistica/biblioteca-publica-municipal-eugenio-trias,turismo
69910,Galer&iacute;a Machado/Mu&ntilde;oz,40.428974110075,-3.697865009308,(+34) 914 120 250,galeria@machadomunoz.com,"de José Marañón, 4",http://www.esmadrid.com/informacion-turistica/galeria-machado-munoz,turismo
69909,Espacio Sin T&iacute;tulo de Cano Estudio,40.412268500000,-3.693816500000,(+34) 91 429 77 74,sintitulo@canoestudio.com,"de la Alameda, 3",http://www.esmadrid.com/informacion-turistica/espacio-sin-titulo-de-cano-estudio,turismo
69908,Centro Cultural L&aacute;zaro Carreter ,40.391547800000,-3.717139700000,(+34) 91 469 08 95,cclazaro@madrid.es,"de la Verdad, 29",http://www.esmadrid.com/informacion-turistica/centro-cultural-lazaro-carreter,turismo
69906,Winebus,40.419302800000,-3.697646800000,(+34) 630 09 96 30,info@winebus.es,"Gran Vía, 4",http://www.esmadrid.com/informacion-turistica/winebus,turismo
69905,La Usina,40.402663373631,-3.700096607208,(+34) 91 468 47 54,info@lausina.es,"de Palos de la Frontera, 4",http://www.esmadrid.com/informacion-turistica/usina,turismo
69904,garAJE,40.446024439988,-3.673671483994,(+34) 91 364 10 55,info@ajemadrid.es,"de Matilde Díez, 11",http://www.esmadrid.com/informacion-turistica/garaje,turismo
69903,Teatro Lagrada,40.402647033436,-3.702821731567, (+34) 91 517 96 98,programacion@teatrolagrada.com,"de Ercilla, 20",http://www.esmadrid.com/informacion-turistica/teatro-lagrada,turismo
69902,Casa de las Alhajas,40.418217439765,-3.707043528557,,,"de San Martín, 1",http://www.esmadrid.com/informacion-turistica/casa-alhajas,turismo
69901,Centro Cultural de los Ej&eacute;rcitos,40.419687701198,-3.699812293053,(+34) 91 522 24 09,secretaria@cculturalejercitos.com,"Gran Vía , 13",http://www.esmadrid.com/informacion-turistica/centro-cultural-de-los-ejercitos,turismo
69899,Cines Callao / Callao City Lights,40.419867397614,-3.705804347992,(+34) 91 522 58 01,info@cinescallao.es,"de Callao, 3 y 4",http://www.esmadrid.com/informacion-turistica/cines-callao-callao-city-lights,turismo
69898,Palacio de Neptuno,40.414553898592,-3.695118427277, (+34) 91 510 32 24,eventos@palacioneptuno.com,"de Cervantes, 42",http://www.esmadrid.com/informacion-turistica/palacio-de-neptuno,turismo
69897,Imprenta Municipal-Artes del Libro,40.413897200000,-3.705472200000,(+34) 91 429 48 81,imprentamunicipal@madrid.es,"de Concepción Jerónima, 15",http://www.esmadrid.com/informacion-turistica/imprenta-municipal,turismo
69894,Sala Mayko,40.399580200000,-3.698976300000,(+34) 91 084 6174,info@lasalamayko.com,"del General Palanca, 7",http://www.esmadrid.com/informacion-turistica/sala-mayko,turismo
69893,Centro Cultural La Vaguada,40.479500072415,-3.709141016007,(+34) 91 588 68 83,cclavaguada@madrid.es,"Monforte de Lemos, 38",http://www.esmadrid.com/informacion-turistica/centro-cultural-vaguada,turismo
69891,Auditorio y Sala de Exposiciones Paco de Luc&iacute;a,40.385132149605,-3.764367699623,(+34) 91 512 08 90,,"de Las Aguilas, 2",http://www.esmadrid.com/informacion-turistica/auditorio-sala-exposiciones-paco-lucia,turismo
69889,Centro Cultural Casa del Reloj,40.394427412692,-3.700536489487,(+34) 91 588 61 18,crelojarganzuela@madrid.es,"de la Chopera, 6 ",http://www.esmadrid.com/informacion-turistica/centro-cultural-casa-reloj,turismo
69888,Centro Cultural Paco Rabal - Palomeras Bajas,40.379439955248,-3.661204576492,(+34) 91 507 97 40,pacorabal@madrid.org,"Felipe de Diego, 13",http://www.esmadrid.com/informacion-turistica/centro-cultural-paco-rabal-palomeras-bajas,turismo
69884,Ciudad del Rock de Arganda del Rey,40.259649513099,-3.405804634094,,,"Autovía A3, km 33",http://www.esmadrid.com/informacion-turistica/ciudad-del-rock-de-arganda-del-rey,turismo
69883,Auditorio de la Universidad Carlos III,40.332478380637,-3.764705657959,(+34) 916 249 182 ,auditorio@uc3m.es,"de la Universidad, 30",http://www.esmadrid.com/informacion-turistica/auditorio-universidad-carlos-iii,turismo
69881,Quinta del Sordo,40.409399281073,-3.714449107647,(+34) 91 052 34 54, info@quintadelsordo.com,"del Rosario, 17",http://www.esmadrid.com/informacion-turistica/quinta-del-sordo,turismo
69880,Off Latina,40.412045800000,-3.711972800000,(+34) 91 169 14 19, sala@offlatina.com ,"de los Mancebos, 4",http://www.esmadrid.com/informacion-turistica/off-de-la-latina,turismo
69878,Espacio Ronda,40.406952537591,-3.713250160217,(+34) 91 366 10 41,info@espacioronda.com,"de Segovia, 50",http://www.esmadrid.com/informacion-turistica/espacio-ronda,turismo
69876,Nave 73,40.403158600000,-3.698736500000,(+34) 91 704 95 83,info@nave73.es,"de Palos de la Frontera, 5",http://www.esmadrid.com/informacion-turistica/nave-73,turismo
69875,Jard&iacute;n Bot&aacute;nico de la Universidad Complutense,40.447948250846,-3.727530241013,(+34) 91 394 70 78,botanico@ucm.es,"Complutense, s/n",http://www.esmadrid.com/informacion-turistica/jardin-botanico-universidad-complutense,turismo
69874,Escenario Puerta del &Aacute;ngel,40.416926850471,-3.727669715881,(+34) 91 578 77 58,,"Herradura, 3",http://www.esmadrid.com/informacion-turistica/escenario-puerta-del-angel,turismo
69873,Teatro Auditorio (Casa de Campo),40.413806462683,-3.741080760956,(+34)  91 578 77 58,registro@madrid-destino.com,"de Portugal, s/n",http://www.esmadrid.com/informacion-turistica/teatro-auditorio-casa-de-campo,turismo
69872,Pabell&oacute;n de Convenciones (Casa de Campo),40.411690724771,-3.739943504334,(+34) 91 578 77 58,,"de Portugal, s/n",http://www.esmadrid.com/informacion-turistica/pabellon-de-convenciones-casa-de-campo,turismo
69871,Madrid &amp; You,40.416717200000,-3.710521300000,(+34) 91 299 46 49,info@madridandyou.com,"del Conde de Lemos, 8",http://www.esmadrid.com/informacion-turistica/madrid-you,turismo
69870,Plaza de Col&oacute;n,40.425268879397,-3.690661510209,,,de Colón,http://www.esmadrid.com/informacion-turistica/plaza-colon,turismo
69869,Parque Juan Carlos I,40.460923605463,-3.605017662048,(+34) 630 630 710,parquejuancarlos@madrid.es,"S.A.R Don Juan de Borbón y Battemberg, 5",http://www.esmadrid.com/informacion-turistica/parque-juan-carlos-i,turismo
69868,The Magic Forest,40.393846000000,-3.796441000000,(+34) 91 512 70 70, info@magicforest.es,"Edgar Neville, s/n  (Ciudad de la imagen)",http://www.esmadrid.com/informacion-turistica/the-magic-forest,turismo
69867,Peque&ntilde;o Teatro Gran V&iacute;a,40.422413725918,-3.708939850330,(+34) 91 541 55 69,info@gruposmedia.es,"Gran Vía, 66",http://www.esmadrid.com/informacion-turistica/pequeno-teatro-gran-via,turismo
69866,Auditorio Marcelino Camacho ,40.413732943949,-3.694501519203,(+34) 91 536 52 36,,"de Lope de Vega , 40",http://www.esmadrid.com/informacion-turistica/auditorio-marcelino-camacho,turismo
69865,Galer&iacute;a de Cristal (Palacio de Cibeles)		,40.418933900000,-3.692152100000,(+34) 91 480 00 08,info@centrocentro.org,"de Cibeles, 1",http://www.esmadrid.com/informacion-turistica/galeria-de-cristal-palacio-de-cibeles,turismo
69864,Teatro Tribue&ntilde;e ,40.425558216472,-3.661563992500,(+34) 91 242 77 27,teatro@teatrotribuene.com,"de Sancho Dávila , 31",http://www.esmadrid.com/informacion-turistica/teatro-tribuene,turismo
69863,Campus de la Universidad Complutense,40.443673653017,-3.727155459765,(+34) 91 452 04 00, infocom@ucm.es,Complutense,http://www.esmadrid.com/informacion-turistica/campus-de-la-universidad-complutense,turismo
69861,Pabell&oacute;n Sat&eacute;lite Madrid Arena (Casa de Campo),40.413667593895,-3.736939430237,(+34) 91 578  77 58,registro@madrid-destino.com,"Principal,  18",http://www.esmadrid.com/informacion-turistica/pabellon-satelite-madrid-arena-casa-de-campo,turismo
69860,Pabell&oacute;n de Cristal (Casa de Campo),40.414780100000,-3.737961200000,(+34)91 578 77 58,registro@madrid-destino.com,"Principal, 16",http://www.esmadrid.com/informacion-turistica/pabellon-de-cristal-casa-de-campo,turismo
69857,Parque Dehesa de la Villa,40.457766004288,-3.721332664055,,,"Dehesa de la Villa, 1",http://www.esmadrid.com/informacion-turistica/parque-dehesa-de-la-villa,turismo
69856,Real Bas&iacute;lica de Nuestra Se&ntilde;ora de Atocha,40.405245000000,-3.683177000000,(+34) 91 434 40 20,parroquiadeatocha@archimadrid.es,"Julián Gayarre, 1",http://www.esmadrid.com/informacion-turistica/real-basilica-senora-atocha,turismo
69855,Tirolinas GO! Madrid,40.678398400000,-4.112257700000,(+34) 691 606 705,madrid@tirolinasgo.com,"Area Recreativa Embalse de las Encinillas I, San Macario, 64",http://www.esmadrid.com/informacion-turistica/tirolinas-go-madrid,turismo
69854,De pino a pino,40.758277788015,-3.993530273438,(+34) 659 454 568,navacerrada@depinoapino.com,"de la Barranca, s/n",http://www.esmadrid.com/informacion-turistica/de-pino-a-pino,turismo
69852,Aqu&oacute;polis de Villanueva de la Ca&ntilde;ada,40.456874624943,-3.990440368652,(+34) 91 815 69 11,aquopolisvillanueva@ grpr.com,"de la Dehesa, s/n",http://www.esmadrid.com/informacion-turistica/aquopolis-villanueva-de-la-canada,turismo
69851, Hip&oacute;dromo de la Zarzuela,40.467976085526,-3.756208419800,(+34) 917 40 05 40,info@hipodromodelazarzuela.es," Padre Huidobro , s/n",http://www.esmadrid.com/informacion-turistica/hipodromo-de-la-zarzuela,turismo
69850,Museo de la Selecci&oacute;n Espa&ntilde;ola de F&uacute;tbol,40.522991004742,-3.898805379868,(+34) 91 495 98 52,museo@rfef.es,"Ramón y Cajal, s/n",http://www.esmadrid.com/informacion-turistica/museo-de-la-seleccion-espanola,turismo
69849,Galer&iacute;a Mois&eacute;s P&eacute;rez de Alb&eacute;niz,40.407448300000,-3.697894700000,(+34) 91 219 32 83,info@galeriampa.com,"del Doctor Fourquet , 20",http://www.esmadrid.com/informacion-turistica/galeria-moises-perez-de-albeniz,turismo
69848,Fundaci&oacute;n Mapfre. Sala B&aacute;rbara de Braganza,40.423399968322,-3.691883683205,(+34) 91 581 46 09,,"de Bárbara de Braganza, 13",http://www.esmadrid.com/informacion-turistica/fundacion-mapfre-sala-barbara-de-braganza,turismo
69847,Tabacalera Promoci&oacute;n del Arte,40.406519000000,-3.703276000000,,promociondelarte.tabacalera@cultura.gob.es,"de Embajadores, 51",http://www.esmadrid.com/informacion-turistica/tabacalera-promocion-arte,turismo
69846,Galer&iacute;a Marita Segovia ,40.421561000000,-3.685894900000,(+34) 91 575 92 57,marita@galeriamaritasegovia.com,"de Lagasca, 7",http://www.esmadrid.com/informacion-turistica/galeria-marita-segovia,turismo
69845,Galer&iacute;a Marta Cervera,40.406482785342,-3.699868619442,(+34) 91 310 50 36,info@galeriamartacervera.com,"de Valencia, 28",http://www.esmadrid.com/informacion-turistica/galeria-marta-cervera,turismo
69844,Galer&iacute;a Maisterravalbuena,40.408698761768,-3.695767521858,(+34) 91 173 30 34,galeria@maisterravalbuena.com,"del Doctor Fourquet , 6",http://www.esmadrid.com/informacion-turistica/galeria-maisterravalbuena,turismo
69843,La Fresh Gallery,40.421860362045,-3.687538504601,(+34) 91 431 51 51,info@lafreshgallery.com,"del Conde de Aranda , 5",http://www.esmadrid.com/informacion-turistica/la-fresh-gallery,turismo
69842,Galer&iacute;a Leandro Navarro,40.413386600000,-3.698134000000,(+34) 91 429 89 55,galeria@leandro-navarro.com,"del Amor de Dios, 1",http://www.esmadrid.com/informacion-turistica/galeria-leandro-navarro,turismo
69840,Javier L&oacute;pez &amp; Fer Franc&eacute;s,40.472340000000,-3.813980000000,(+34) 91 593 21 84,info@javierlopezferfrances.com,"Guecho, 12 B",http://www.esmadrid.com/informacion-turistica/javier-lopez-fer-frances,turismo
69839,Instituto Iberoamericano de Finlandia,40.422047300000,-3.697553800000,(+ 34) 91 444 44 10,info@madrid.fi,"de Augusto Figueroa, 24",http://www.esmadrid.com/informacion-turistica/instituto-iberoamericano-de-finlandia,turismo
69838,Instituto de M&eacute;xico en Espa&ntilde;a,40.416045000000,-3.697390400000,(+34) 91  369 28 14,culturaesp@sre.gob.mx,"de San Jerónimo, 46",http://www.esmadrid.com/informacion-turistica/instituto-de-mexico-en-espana,turismo
69836,Galer&iacute;a Heinrich Ehrhardt,40.425252000000,-3.698520000000,(+34) 91 310 44 15 ,galeria@heinrichehrhardt.com ,"de San Lorenzo, 11",http://www.esmadrid.com/informacion-turistica/galeria-heinrich-ehrhardt,turismo
69835,Galer&iacute;a Guillermo de Osma,40.420867971153,-3.687117397785,(+34) 91 435 59 36,info@guillermodeosma.com ,"de Claudio Coello, 4, 1º izq.",http://www.esmadrid.com/informacion-turistica/galeria-guillermo-osma,turismo
69834,Roca Madrid Gallery,40.438275600000,-3.693182200000,(+34) 90 010 32 52,info.madridgallery@roca.net,"de José Abascal, 57",http://www.esmadrid.com/informacion-turistica/roca-gallery,turismo
69833,Galer&iacute;a Gaud&iacute;,40.436601564176,-3.694174289703,(+34) 917 02 03 36,info@galeriagaudi.net,"García de Paredes, 76",http://www.esmadrid.com/informacion-turistica/un-espacio-que-desde-los-ochenta-se-centra-en-el-arte-figurativo,turismo
69830,Fundaci&oacute;n Loewe,40.419552500000,-3.698379500000,(+34) 91 522 68 15,fundacion@loewe.es,"Gran Vía, 8",http://www.esmadrid.com/informacion-turistica/fundacion-loewe,turismo
69829,Formato C&oacute;modo,40.413915719543,-3.698428273201,(+34) 91 429 34 48 ,info@formatocomodo.com,"de Lope de Vega, 5",http://www.esmadrid.com/informacion-turistica/formato-comodo,turismo
69828,Galer&iacute;a Fern&aacute;ndez-Braso,40.422193197687,-3.685006499291,(+34) 91 575 98 17,info@galeriafernandez-braso.com,"de Villanueva, 30",http://www.esmadrid.com/informacion-turistica/galeria-fernandez-braso,turismo
69827,Espacio Valverde,40.422566870096,-3.701587915421,(+34) 91 522 66 68,info@espaciovalverde.com,"de Valverde, 30",http://www.esmadrid.com/informacion-turistica/espacio-valverde,turismo
69825,Galer&iacute;a Elvira Gonz&aacute;lez,40.427287623619,-3.697569966316,(+34) 91 319 59 00 ,info@galeriaelviragonzalez.com,"Hermanos Alvárez Quintero , 1",http://www.esmadrid.com/informacion-turistica/galeria-elvira-gonzalez,turismo
69824,Galer&iacute;a Elba Ben&iacute;tez,40.425041631686,-3.698699176312,(+34) 91 308 04 68,info@elbabenitez.com,"de San Lorenzo, 11",http://www.esmadrid.com/informacion-turistica/galeria-elba-benitez,turismo
69822,Centro Pers&eacute;polis,40.442838500000,-3.704757900000,(34) 91 360 02 02,persepolis@centropersepolis.com,"de Esquilache, 2",http://www.esmadrid.com/informacion-turistica/centro-persepolis,turismo
69821,Centro Cultural Coreano en Espa&ntilde;a,40.428316671232,-3.690209984779,(+34) 91 702 45 50,info@cccspain.org,"de la Castellana, 15",http://www.esmadrid.com/informacion-turistica/centro-cultural-coreano-en-espana,turismo
69819,Galer&iacute;a Casado Santapau,40.423071222461,-3.695294111967,(+34) 91 532 06 78,info@casadosantapau.com,"Piamonte, 10",http://www.esmadrid.com/informacion-turistica/galeria-casado-santapau,turismo
69817,Blanca Soto Arte,40.411146973468,-3.694343268871,(+34) 914 02 33 98,galeria@galeriablancasoto.com,"de Almadén, 13",http://www.esmadrid.com/informacion-turistica/blanca-soto-arte,turismo
69816,Blanca Berl&iacute;n Galer&iacute;a,40.427085487416,-3.710162937641,(+34) 91 542 93 13,galeria@blancaberlingaleria.com,"del Limón, 28",http://www.esmadrid.com/informacion-turistica/blanca-berlin-galeria,turismo
69815,Benveniste Contemporary,40.390765640773,-3.732382357121,(+34) 91 471 83 05,info@benveniste.com ,"Nicolás Morales, 37",http://www.esmadrid.com/informacion-turistica/benveniste-contemporary,turismo
69814,Galer&iacute;a BAT Alberto Cornejo,40.444055300000,-3.696243200000,(+34) 91 554 48 10,albertocornejo@galeriabat.com,"de María de Guzmán , 61",http://www.esmadrid.com/informacion-turistica/galeria-bat-alberto-cornejo,turismo
69812,Astart&eacute; Iniciativas Art&iacute;sticas,40.427103863460,-3.692133128643,(+34) 91 319 42 90 ,info@astarteiniciativas.com,"del Monte Esquinza, 8",http://www.esmadrid.com/informacion-turistica/astarte-iniciativas-artisticas,turismo
69811,Espacio Artkunstarte,40.417178900000,-3.689879700000,(34) 91 702 14 92,info@artkunstarte.com,"de Juan de Mena, 12",http://www.esmadrid.com/informacion-turistica/galeria-arnes-y-ropke,turismo
69809,&Aacute;lvaro Alc&aacute;zar Galer&iacute;a de Arte,40.434226000000,-3.672564000000, (+34) 91 342 81 08,galeria@galeriaalvaroalcazar.com,"Ferrer del Río, 5",http://www.esmadrid.com/informacion-turistica/galeria-arte-alvaro-alcazar,turismo
69808,Sala Alcal&aacute; 31 de la Comunidad de Madrid,40.418472695791,-3.698229789734,(34) 91 720 82 51,museosexposiciones@madrid.org,"de Alcalá, 31",http://www.esmadrid.com/informacion-turistica/sala-alcala-31-de-la-comunidad-de-madrid,turismo
69806,Fundaci&oacute;n Olivar de Castillejo ,40.459072400000,-3.682977600000,(+34) 91 359 71 61,coordinacion@fundacionolivardecastillejo.org,"Menéndez Pidal, 3",http://www.esmadrid.com/informacion-turistica/fundacion-olivar-de-castillejo,turismo
69805,La Neomud&eacute;jar,40.404150314755,-3.684067726135,(34) 91 528 33 49,info@arthousemadrid.es,"Antonio Nebrija, s/n",http://www.esmadrid.com/informacion-turistica/la-neomudejar,turismo
69804,La F&aacute;brica Galer&iacute;a,40.411733100000,-3.693751500000,(+34) 91 298 55 46,info@lafabrica.com,"de la Alameda, 9",http://www.esmadrid.com/informacion-turistica/la-fabrica-galeria,turismo
69803,Galer&iacute;a Michel Soskine,40.425510200000,-3.693961600000,(+34) 91 431 06 03,michelsoskineinc@gmail.com,"General Castaños, 9",http://www.esmadrid.com/informacion-turistica/galeria-michel-soskine,turismo
69800,Intermedi&aelig; (Matadero),40.392695118074,-3.697865009308,(+34) 91 318 46 28,info@intermediae.es,"de la Chopera, 14",http://www.esmadrid.com/informacion-turistica/intermedi-matadero,turismo
69798,Casa del Lector (Matadero),40.391663482773,-3.697588741779,(34) 91 700 06 76,info@casalector.es,"de la Chopera, 14",http://www.esmadrid.com/informacion-turistica/casa-del-lector,turismo
69797,Naves del Espa&ntilde;ol en Matadero,40.391820782642,-3.697409033775,(+ 34) 91 318 47 00,info@navesmatadero.es,"de la Chopera, 14",http://www.esmadrid.com/informacion-turistica/naves-espanol-matadero,turismo
69796,Cineteca (Matadero),40.391530696884,-3.696389794350,(+34) 91 318 46 74,cineteca@cinetecamadrid.com,"de Legazpi, 8",http://www.esmadrid.com/informacion-turistica/cineteca-matadero,turismo
69795,Central de dise&ntilde;o (Matadero),40.392306979915,-3.697430491447,(+34) 91 474 67 80,info@dimad.org,"de la Chopera, 14",http://www.esmadrid.com/informacion-turistica/central-de-diseno,turismo
69794,Nave 0 (Matadero),40.391973600000,-3.697861400000,(+34) 91 318 46 70,info@mataderomadrid.com,"de Legazpi , 8",http://www.esmadrid.com/informacion-turistica/nave-0-matadero,turismo
69793,Apetit'Oh!,40.398101000000,-3.673030600000,(+34) 91 552 76 98,apetitoh@apetitoh.com,"de Seco, 14",http://www.esmadrid.com/informacion-turistica/apetitoh,turismo
69791,Le Cordon Bleu,40.439737225807,-3.833498954773,(+34) 91 715 10 46,madrid@cordonbleu.edu,"Pozuelo - Majadahonda (M 515),  Km. 1,800  (Campus Universidad Francisco de Vitoria)",http://www.esmadrid.com/informacion-turistica/le-cordon-bleu,turismo
69788,Utop&iacute;a Parkway,40.420413630931,-3.700195848942,(+34) 915 32 88 44,info@galeriautopiaparkway.com,"de la Reina, 11",http://www.esmadrid.com/informacion-turistica/utopia-parkway,turismo
69787,Traves&iacute;a Cuatro,40.425515338044,-3.699203431606,(+34) 91 310 00 98,galeria@travesiacuatro.com,"de San Mateo, 16",http://www.esmadrid.com/informacion-turistica/travesia-cuatro,turismo
69786,The Goma,40.411547767108,-3.695687055588,(+34) 91 828 71 16,galeria@thegoma.com,"de Fúcar, 12",http://www.esmadrid.com/informacion-turistica/the-goma,turismo
69784,Teatro del Barrio,40.409623935866,-3.699216842651,(+34) 91 084 36 92,info@teatrodelbarrio.com,"de Zurita, 20",http://www.esmadrid.com/informacion-turistica/teatro-del-barrio,turismo
69783,Galer&iacute;a Sabrina Amrani,40.423489811632,-3.704441785812,( +34) 910 69 03 22,hello@sabrinaamrani.com,"de la Madera, 23",http://www.esmadrid.com/informacion-turistica/galeria-sabrina-amrani,turismo
69782,Galer&iacute;a Rafael P&eacute;rez Hernando,40.425848900000,-3.694140200000,(+34) 91 297 64 80,info@rphart.net,"de Orellana, 18",http://www.esmadrid.com/informacion-turistica/rafael-perez-hernando,turismo
69781,Ponce + Robles,40.412052600000,-3.693785800000,(+34) 914 203 889,info@poncerobles.com,"de la Alameda, 5",http://www.esmadrid.com/informacion-turistica/ponce-robles,turismo
69779,Parra &amp; Romero,40.422054600000,-3.686891400000,(+34) 91 576 28 13,info@parra-romero.com,"de Claudio Coello, 14",http://www.esmadrid.com/informacion-turistica/parra-romero,turismo
69778,Nogueras Blanchard,40.408937500000,-3.695609800000,(+34)  91 506 34 84,info@noguerasblanchard.com,"Doctor Fourquet, 4",http://www.esmadrid.com/informacion-turistica/nogueras-blanchard,turismo
69777,Palacio de Gaviria,40.416959523924,-3.706115484238,(+34) 910 600 800,contacto@palaciodegaviriamadrid.com,"del Arenal, 9",http://www.esmadrid.com/informacion-turistica/palacio-de-gaviria,turismo
69774,Devour Tours Madrid,40.411928600000,-3.696549800000,(+34) 944 581 022,info@devourtours.com,--,http://www.esmadrid.com/informacion-turistica/devour-tours-madrid,turismo
69773,Gourmet Madrid,40.416241000000,-3.677822600000,(+34) 91 771 02 16,info@gourmetmadrid.com,"de Menéndez Pelayo, 53",http://www.esmadrid.com/informacion-turistica/gourmet-madrid,turismo
69772,Segway Trip,40.415575800000,-3.709187800000,(+34) 637 263 886,info@segwaytrip.com,"de San Miguel, 2",http://www.esmadrid.com/informacion-turistica/segway-trip,turismo
69770,Madrid Original,40.433582126783,-3.685270696878,(+34) 91 521 04 49,madrid@madridoriginal.com,"de Juan Bravo, 3",http://www.esmadrid.com/informacion-turistica/madrid-original,turismo
69769,De Madrid al Cielo,40.415364000000,-3.707398000000,(+34) 667 60 21 27,asantos@demadridalcielo.net,Mayor,http://www.esmadrid.com/informacion-turistica/de-madrid-al-cielo,turismo
69768,Aularte,40.408525162562,-3.695326298475,(+34) 91 530 91 38 ,info@aularte.es﻿,"del Hospital, 2, local 3",http://www.esmadrid.com/informacion-turistica/aularte,turismo
69766,Biblioteca Regional de la Comunidad de Madrid Joaqu&iacute;n Leguina,40.400195959296,-3.690580129623,(+34) 91 720 88 50 ,biblio.regional@madrid.org,"de Ramírez de Prado, 3",http://www.esmadrid.com/informacion-turistica/biblioteca-regional-comunidad-madrid-joaquin-leguina,turismo
69764,Galer&iacute;a de Arte Luc&iacute;a Mendoza,40.423353700000,-3.692687600000,(+34) 91 391 40 33,galeria@luciamendoza.es,"Bárbara de Braganza, 10",http://www.esmadrid.com/informacion-turistica/galeria-lucia-mendoza,turismo
69762,Antociano,40.423560000000,-3.672840000000,(+34) 91 551 89 85 ,info@antociano.com ,"de Antonia Mercé, 2",http://www.esmadrid.com/informacion-turistica/antociano,turismo
69761,Arquirutas,40.416775400000,-3.703790200000,(+34) 91 899 14 22,info@arquirutas.com,", ",http://www.esmadrid.com/informacion-turistica/arquirutas,turismo
69759,APIT Madrid,40.422839900000,-3.710512800000,(+34) 91 542 12 14,guias@apit.es,"Gran Vía, 69, 7ª",http://www.esmadrid.com/informacion-turistica/apit-madrid,turismo
69758,Explora lo Desconocido,40.397543800000,-3.691786700000,(+34) 91 468 62 89,info@exploralodesconocido.com,"Tomás Bretón, 49B, 1ºC",http://www.esmadrid.com/informacion-turistica/explora-lo-desconocido,turismo
69756,Carpetania Madrid,40.424349442690,-3.704476654530, (+34) 91 531 40 18,correo@carpetaniamadrid.com,"de Jesús del Valle, 11",http://www.esmadrid.com/informacion-turistica/carpetania-madrid,turismo
69754,Galer&iacute;a Fernando Pradilla,40.422843000000,-3.686782700000,(+34) 91 575 48 04,gfp@galeriafernandopradilla.es,"de Claudio Coello , 20",http://www.esmadrid.com/informacion-turistica/galeria-fernando-pradilla,turismo
69753,Galer&iacute;a Jorge Alcolea,40.423708200000,-3.686694800000,(+34) 91 431 65 92,galeriajorgealcolea@gmail.com,"de Claudio Coello, 28",http://www.esmadrid.com/informacion-turistica/galeria-jorge-alcolea,turismo
69752,David Bard&iacute;a Galer&iacute;a de Arte,40.422169700000,-3.682809200000,(+34) 91 781 07 59,davidbardia@davidbardia.com,"de Villanueva, 40",http://www.esmadrid.com/informacion-turistica/david-bardia-galeria-arte,turismo
69751,Librer&iacute;as de la Cuesta de Moyano,40.409616100000,-3.690457800000,,,"Claudio Moyano, s/n ",http://www.esmadrid.com/informacion-turistica/librerias-cuesta-moyano,turismo
69750,Instituto Franc&eacute;s,40.424719400000,-3.692158600000,(+34) 91 700 48 00,ife.madrid@institutfrancais.es ,"del Marqués de la Ensenada, 12",http://www.esmadrid.com/informacion-turistica/instituto-frances,turismo
69747,Instituto Alem&aacute;n de Cultura-Goethe Institut,40.429562124465,-3.691443800926,(+34) 91 391 39 44 ,info-madrid@goethe.de,"de Zurbarán, 21",http://www.esmadrid.com/informacion-turistica/instituto-aleman-de-cultura-goethe-institut,turismo
69746,Campo de F&uacute;tbol de Vallecas,40.392239566217,-3.658685982227,(+34) 914 78 22 53,,"del Payaso Fofó, s/n",http://www.esmadrid.com/informacion-turistica/campo-de-futbol-de-vallecas,turismo
69745,Coliseum Alfonso P&eacute;rez,40.325730691238,-3.714945316315,(+34) 91 695 96 43,,"Teresa de Calcuta, s/n",http://www.esmadrid.com/informacion-turistica/coliseum-alfonso-perez,turismo
69744,Centro Sefarad-Israel,40.415305200000,-3.711209600000,(+34) 91 391 10 02,centro@sefarad-israel.es,"Mayor, 69",http://www.esmadrid.com/informacion-turistica/centro-sefarad-israel,turismo
69743,Casa &Aacute;rabe,40.421734400000,-3.681848400000,(+34) 91 563 30 66,info@casaarabe.es ,"de Alcalá, 62",http://www.esmadrid.com/informacion-turistica/casa-arabe-madrid,turismo
69742,Punto de Inf. Tur&iacute;stica Aeropuerto Adolfo Su&aacute;rez Madrid-Barajas (T2. Entre Salas 5 y 6),40.467945477403,-3.568625450134,(+34) 91 578 78 10,turismo@esmadrid.com ,"Hispanidad, s/n",http://www.esmadrid.com/informacion-turistica/punto-info-turistica-aeropuerto-t2,turismo
69741,Calle Fuencarral,40.420319710773,-3.701567670299,,,"Fuencarral, s/n",http://www.esmadrid.com/informacion-turistica/calle-fuencarral,turismo
69740,Parroquia de Guadalupe,40.452430200000,-3.674707700000,(+34) 91 457 00 39,parroquia@parroquiadeguadalupe.com,"de Puerto Rico, 1",http://www.esmadrid.com/informacion-turistica/parroquia-guadalupe,turismo
69739,Nave de Motores de Pac&iacute;fico,40.404052275692,-3.674368858337,(+34) 91 392 06 93,info@museosmetromadrid.es,"de Valderribas, 49",http://www.esmadrid.com/informacion-turistica/anden-0-nave-de-motores-de-pacifico,turismo
69738,Punto de Informaci&oacute;n Tur&iacute;stica CentroCentro,40.419055700000,-3.692078100000,(+34) 91 578 78 10, turismo@esmadrid.com,"de Cibeles, 1 (Palacio de Cibeles), ",http://www.esmadrid.com/informacion-turistica/punto-de-informacion-turistica-centrocentro,turismo
69737,Jard&iacute;n Bot&aacute;nico del Parque de Pradolongo (Usera),40.375583000000,-3.711954200000,,,"de Rafaela Ybarra , 85",http://www.esmadrid.com/informacion-turistica/jardin-botanico-parque-pradolongo-usera,turismo
69736,Los Ca&ntilde;os del Peral,40.418152094066,-3.709355592728, (+34) 91 392 06 93,info@museosmetromadrid.es,de Isabel II ,http://www.esmadrid.com/informacion-turistica/museo-arqueologico-canos-del-peral,turismo
69735,Castillo de la Alameda,40.458735880164,-3.592486381531,(+34) 91 366 74 15,castilloalameda@madrid.es,"de Antonio Sancha, 1",http://www.esmadrid.com/informacion-turistica/castillo-de-la-alameda,turismo
69733,Museo F&eacute;lix Ca&ntilde;ada,40.442557600000,-3.700816900000,(+34) 91 441 79 21,museo@fgomezpardo.es ,"de Alenza, 1",http://www.esmadrid.com/informacion-turistica/museo-felix-canada,turismo
69732,Real Monasterio de Santa Isabel,40.409450339046,-3.696188628674,,info@patrimonionacional.es,"de Santa Isabel, 48 bis",http://www.esmadrid.com/informacion-turistica/real-monasterio-de-santa-isabel,turismo
69731,Parque de Santander,40.441550000000,-3.706500000000,,,"de Filipinas, 11",http://www.esmadrid.com/informacion-turistica/parque-de-santander,turismo
69730,IFEMA MADRID,40.465157240748,-3.616549993517,(+34) 902 22 15 15,lineaifema@ifema.es,"del Partenón, 5",http://www.esmadrid.com/informacion-turistica/feria-de-madrid,turismo
69725,Iglesia de Santa B&aacute;rbara (Convento de las Salesas Reales),40.423758100000,-3.693433500000,(+34) 91 319 48 11,info@parroquiadesantabarbara.es,"de Bárbara de Braganza, 1",http://www.esmadrid.com/informacion-turistica/iglesia-santa-barbara,turismo
69726,Centro Cultural Casa de Vacas,40.419197617623,-3.684110641480,(+34) 91 409 58 19 ,cccasadevacas@madrid.es,"de Colombia, 1",http://www.esmadrid.com/informacion-turistica/centro-cultural-casa-de-vacas,turismo
69727,Lago de la Casa de Campo,40.418756143825,-3.732354069878,,,"del Embarcadero, 8",http://www.esmadrid.com/informacion-turistica/lago-de-la-casa-de-campo,turismo
69728,Recinto Ferial Casa de Campo,40.412278056152,-3.738839818648,(+34) 91 578 77 58,registro@madrid-destino.com,"de Portugal, s/n",http://www.esmadrid.com/informacion-turistica/recinto-ferial-casa-de-campo,turismo
69729,Estanque Grande de El Retiro,40.417114722604,-3.684003353119,(+34) 91 574 40 24,idmretiro|@madrid.es,del Estanque,http://www.esmadrid.com/informacion-turistica/estanque-grande-de-el-retiro,turismo
69724,Complejo AZCA,40.450316000000,-3.692996000000,,,"de Pablo Ruiz Picasso, s/n",http://www.esmadrid.com/informacion-turistica/complejo-azca,turismo
69723,Plaza de Pedro Zerolo,40.420974200000,-3.699021800000,,,"de Pedro Zerolo, s/n ",http://www.esmadrid.com/informacion-turistica/plaza-pedro-zerolo,turismo
69722,Plaza Dos de Mayo,40.427004700000,-3.704010100000,,,"del Dos de Mayo, ",http://www.esmadrid.com/informacion-turistica/plaza-dos-de-mayo,turismo
69721,Ivorypress ,40.451886533249,-3.698025941849,(+34) 91 449 09 61,enquiries@ivorypress.com,"del Aviador Zorita, 46 - 48",http://www.esmadrid.com/informacion-turistica/ivorypress,turismo
69714,Puerta de San Vicente,40.420243124933,-3.720417022705,,,"de San Vicente, s/n",http://www.esmadrid.com/informacion-turistica/puerta-de-san-vicente,turismo
69715,Puerta de Hierro,40.455666414130,-3.744363784790,,,"Padre Huidobro, 1",http://www.esmadrid.com/informacion-turistica/puerta-de-hierro,turismo
69716,Huerto de las Monjas (Jard&iacute;n del Palacio O&acute;Reilly),40.414319049406,-3.711643517017,,,"del Sacramento, 7",http://www.esmadrid.com/informacion-turistica/huerto-de-las-monjas,turismo
69717,Muralla cristiana de Madrid,40.412786833654,-3.709061356948,,,"del Almendro,  15-17",http://www.esmadrid.com/informacion-turistica/muralla-cristiana-madrid,turismo
69718,Edificio Mirador,40.487627700748,-3.654928207398,,,"Princesa de Éboli,  13-21",http://www.esmadrid.com/informacion-turistica/edificio-mirador,turismo
69719,Parque Lineal del Manzanares,40.377964283086,-3.687077777740,,,"de Perales, s/n",http://www.esmadrid.com/informacion-turistica/parque-lineal-manzanares,turismo
69720,Casa de Bamb&uacute;,40.371426300000,-3.764514200000,,,"Clarinetes, 9-21",http://www.esmadrid.com/informacion-turistica/casa-de-bambu,turismo
69704,Las Fuentecillas o Cuatro Fuentes,40.413329610573,-3.693537265062,,,"del Prado (confluencia con Plaza de Murillo), s/n",http://www.esmadrid.com/informacion-turistica/las-fuentecillas-o-cuatro-fuentes,turismo
69705,Fuente de Apolo (Fuente de las Cuatro Estaciones),40.417257668441,-3.693857789040,,,"del Prado, s/n",http://www.esmadrid.com/informacion-turistica/fuente-de-apolo-fuente-de-las-cuatro-estaciones,turismo
69706,Fuente de la Alcachofa,40.415413465947,-3.684229049125,,,"de Honduras (Parque del Retiro), s/n",http://www.esmadrid.com/informacion-turistica/fuente-de-la-alcachofa,turismo
69707,Fuente de los Gal&aacute;pagos o Fuente de Isabel II,40.418629933021,-3.685489296913,,,"de Nicaragua (Parque del Retiro), s/n",http://www.esmadrid.com/informacion-turistica/fuente-de-los-galapagos-o-fuente-de-isabel-ii,turismo
69708,Escultura ecuestre de Felipe IV ,40.418299614334,-3.712172497634,,,"de Oriente, s/n",http://www.esmadrid.com/informacion-turistica/escultura-ecuestre-de-felipe-iv,turismo
